{"nhits": 252, "parameters": {"dataset": "sites-disposant-du-service-paris-wi-fi", "timezone": "UTC", "rows": 1000, "format": "json", "facet": ["cp", "idpw", "etat2"]}, "records": [{"datasetid": "sites-disposant-du-service-paris-wi-fi", "recordid": "31c3bfd9ad944ec1bea07cbeb28dc6bb0653e530", "fields": {"cp": "75010", "nom_site": "MEDIATHEQUE FRANCOISE SAGAN", "arc_adresse": "8 RUE LEON SCHWARTZENBERG", "geo_point_2d": [48.8754298708, 2.35366677297], "nombre_de_borne_wifi": 11, "idpw": "PW0147", "geo_shape": {"type": "Point", "coordinates": [2.353666772968424, 48.87542987081135]}, "etat2": "Op\u00e9rationnel"}, "geometry": {"type": "Point", "coordinates": [2.35366677297, 48.8754298708]}, "record_timestamp": "2019-10-08T07:01:10.494000+00:00"}, {"datasetid": "sites-disposant-du-service-paris-wi-fi", "recordid": "322b5836dd2af4413728e67dc4432cf83dde06b1", "fields": {"cp": "75020", "nom_site": "PARC DE BELLEVILLE (PARIS NATURE MAISON DE L'AIR)", "arc_adresse": "27 RUE PIAT", "geo_point_2d": [48.8716051488, 2.38492475051], "nombre_de_borne_wifi": 1, "idpw": "PW0168", "geo_shape": {"type": "Point", "coordinates": [2.384924750509342, 48.87160514880642]}, "etat2": "Op\u00e9rationnel"}, "geometry": {"type": "Point", "coordinates": [2.38492475051, 48.8716051488]}, "record_timestamp": "2019-10-08T07:01:10.494000+00:00"}, {"datasetid": "sites-disposant-du-service-paris-wi-fi", "recordid": "ec66708cf6e56caced0ae6485f68c0a44167636d", "fields": {"cp": "75013", "nom_site": "JARDIN BRASSAI", "arc_adresse": "59 BOULEVARD AUGUSTE BLANQUI", "geo_point_2d": [48.8292152156, 2.34951229427], "nombre_de_borne_wifi": 1, "geo_shape": {"type": "Point", "coordinates": [2.349512294267843, 48.82921521555871]}, "etat2": "En \u00e9tude"}, "geometry": {"type": "Point", "coordinates": [2.34951229427, 48.8292152156]}, "record_timestamp": "2019-10-08T07:01:10.494000+00:00"}, {"datasetid": "sites-disposant-du-service-paris-wi-fi", "recordid": "6f37d419ab91b1d9b2972eafe2f5585c4d51f358", "fields": {"cp": "75007", "nom_site": "BERGES RIVE GAUCHE - JARDIN FLOTTANT", "arc_adresse": "PORT DU GROS CAILLOU", "geo_point_2d": [48.8629641751, 2.30452468194], "nombre_de_borne_wifi": 3, "idpw": "PW0189", "geo_shape": {"type": "Point", "coordinates": [2.30452468193794, 48.86296417505911]}, "etat2": "Op\u00e9rationnel"}, "geometry": {"type": "Point", "coordinates": [2.30452468194, 48.8629641751]}, "record_timestamp": "2019-10-08T07:01:10.494000+00:00"}, {"datasetid": "sites-disposant-du-service-paris-wi-fi", "recordid": "76280ce4b86872e0c0696c047c1d140b66c6868f", "fields": {"cp": "75016", "nom_site": "BIBLIOTHEQUE GERMAINE TILLION", "arc_adresse": "6 RUE DU COMMANDANT SCHLOESING", "geo_point_2d": [48.8618363826, 2.28427079122], "nombre_de_borne_wifi": 2, "idpw": "PW0113", "geo_shape": {"type": "Point", "coordinates": [2.284270791218422, 48.86183638257241]}, "etat2": "Op\u00e9rationnel"}, "geometry": {"type": "Point", "coordinates": [2.28427079122, 48.8618363826]}, "record_timestamp": "2019-10-08T07:01:10.494000+00:00"}, {"datasetid": "sites-disposant-du-service-paris-wi-fi", "recordid": "393ef2921b3d1a232c84d34f75eded724941f4ef", "fields": {"cp": "75016", "nom_site": "JARDIN DU TROCADERO", "arc_adresse": "1 PLACE DU ONZE NOVEMBRE 1918", "geo_point_2d": [48.8609372147, 2.28934994437], "nombre_de_borne_wifi": 1, "idpw": "PW0175", "geo_shape": {"type": "Point", "coordinates": [2.289349944365957, 48.860937214689706]}, "etat2": "Op\u00e9rationnel"}, "geometry": {"type": "Point", "coordinates": [2.28934994437, 48.8609372147]}, "record_timestamp": "2019-10-08T07:01:10.494000+00:00"}, {"datasetid": "sites-disposant-du-service-paris-wi-fi", "recordid": "a806fd279848b786c29f42a52d1284bdbd2fe9ca", "fields": {"cp": "75020", "nom_site": "PARC DE BELLEVILLE - 1", "arc_adresse": "45 RUE DES COURONNES", "geo_point_2d": [48.8705904639, 2.38423775006], "nombre_de_borne_wifi": 1, "idpw": "PW0057", "geo_shape": {"type": "Point", "coordinates": [2.384237750061386, 48.87059046386752]}, "etat2": "Op\u00e9rationnel"}, "geometry": {"type": "Point", "coordinates": [2.38423775006, 48.8705904639]}, "record_timestamp": "2019-10-08T07:01:10.494000+00:00"}, {"datasetid": "sites-disposant-du-service-paris-wi-fi", "recordid": "dcf8b83c4787769d0e01cee37ad06c6e9a9e406f", "fields": {"cp": "75014", "nom_site": "SQUARE DU CHANOINE VIOLLET", "arc_adresse": "72 RUE DU MOULIN VERT", "geo_point_2d": [48.8312962023, 2.32009649026], "nombre_de_borne_wifi": 1, "idpw": "PW0185", "geo_shape": {"type": "Point", "coordinates": [2.32009649025955, 48.831296202302845]}, "etat2": "Op\u00e9rationnel"}, "geometry": {"type": "Point", "coordinates": [2.32009649026, 48.8312962023]}, "record_timestamp": "2019-10-08T07:01:10.494000+00:00"}, {"datasetid": "sites-disposant-du-service-paris-wi-fi", "recordid": "e7df10dca3341a4b5b840f11750d5fed85590a3e", "fields": {"cp": "75004", "nom_site": "SQUARE JEAN XXIII - 2", "arc_adresse": "RUE DU CLOITRE NOTRE DAME", "geo_point_2d": [48.8525014751, 2.35079596201], "nombre_de_borne_wifi": 1, "idpw": "PW0067", "geo_shape": {"type": "Point", "coordinates": [2.3507959620076813, 48.85250147506819]}, "etat2": "Op\u00e9rationnel"}, "geometry": {"type": "Point", "coordinates": [2.35079596201, 48.8525014751]}, "record_timestamp": "2019-10-08T07:01:10.494000+00:00"}, {"datasetid": "sites-disposant-du-service-paris-wi-fi", "recordid": "3be4d78e9f94f9d7c1084c2692aa132c29a5999a", "fields": {"cp": "75002", "nom_site": "MAISON DE LA VIE ASSOCIATIVE ET CITOYENNE 2", "arc_adresse": "23 RUE GRENETA", "geo_point_2d": [48.8650814049, 2.35054940319], "nombre_de_borne_wifi": 1, "idpw": "PW0036", "geo_shape": {"type": "Point", "coordinates": [2.35054940319118, 48.8650814049341]}, "etat2": "Op\u00e9rationnel"}, "geometry": {"type": "Point", "coordinates": [2.35054940319, 48.8650814049]}, "record_timestamp": "2019-10-08T07:01:10.494000+00:00"}, {"datasetid": "sites-disposant-du-service-paris-wi-fi", "recordid": "98a9cc89a5a0206de9c78760d19f55a74cacfe73", "fields": {"cp": "75003", "nom_site": "MAISON DE LA VIE ASSOCIATIVE ET CITOYENNE 3/4", "arc_adresse": "3 RUE EUGENE SPULLER", "geo_point_2d": [48.8640250421, 2.36218654489], "nombre_de_borne_wifi": 1, "idpw": "PW0019-1", "geo_shape": {"type": "Point", "coordinates": [2.362186544891376, 48.86402504205692]}, "etat2": "Op\u00e9rationnel"}, "geometry": {"type": "Point", "coordinates": [2.36218654489, 48.8640250421]}, "record_timestamp": "2019-10-08T07:01:10.494000+00:00"}, {"datasetid": "sites-disposant-du-service-paris-wi-fi", "recordid": "73e048ad79136ebcafdb137179fff95607787d01", "fields": {"cp": "75010", "nom_site": "GYMNASE MARIE PARADIS", "arc_adresse": "11 SQUARE ALBAN SATRAGNE", "geo_point_2d": [48.8754539407, 2.35524842818], "nombre_de_borne_wifi": 1, "idpw": "PW0097", "geo_shape": {"type": "Point", "coordinates": [2.355248428182183, 48.87545394069123]}, "etat2": "Op\u00e9rationnel"}, "geometry": {"type": "Point", "coordinates": [2.35524842818, 48.8754539407]}, "record_timestamp": "2019-10-08T07:01:10.494000+00:00"}, {"datasetid": "sites-disposant-du-service-paris-wi-fi", "recordid": "774f38cb4feba02d93241fde2dc574e2da775daf", "fields": {"cp": "75018", "nom_site": "BIBLIOTHEQUE JACQUELINE DE ROMILLY", "arc_adresse": "16-30 AVENUE DE LA PORTE MONTMARTRE", "geo_point_2d": [48.9003798743, 2.3358735009], "nombre_de_borne_wifi": 2, "idpw": "PW0198", "geo_shape": {"type": "Point", "coordinates": [2.335873500895439, 48.900379874332515]}, "etat2": "Op\u00e9rationnel"}, "geometry": {"type": "Point", "coordinates": [2.3358735009, 48.9003798743]}, "record_timestamp": "2019-10-08T07:01:10.494000+00:00"}, {"datasetid": "sites-disposant-du-service-paris-wi-fi", "recordid": "572c655110a6080091a2b6a6428b2e31f1d70c69", "fields": {"cp": "75019", "nom_site": "BIBLIOTHEQUE PLACE DES FETES", "arc_adresse": "18 RUE JANSSEN", "geo_point_2d": [48.8793648409, 2.39763758371], "nombre_de_borne_wifi": 3, "idpw": "PW0008", "geo_shape": {"type": "Point", "coordinates": [2.397637583708676, 48.87936484092137]}, "etat2": "Op\u00e9rationnel"}, "geometry": {"type": "Point", "coordinates": [2.39763758371, 48.8793648409]}, "record_timestamp": "2019-10-08T07:01:10.494000+00:00"}, {"datasetid": "sites-disposant-du-service-paris-wi-fi", "recordid": "2ddd4afb43126213aacfd14a03a7f56ee45d9487", "fields": {"cp": "75015", "nom_site": "CENTRE SPORTIF SUZANNE LENGLEN - ENTREE", "arc_adresse": "2 RUE LOUIS ARMAND", "geo_point_2d": [48.8330706432, 2.27657635711], "nombre_de_borne_wifi": 1, "idpw": "PW0173-1", "geo_shape": {"type": "Point", "coordinates": [2.276576357106314, 48.83307064322776]}, "etat2": "Op\u00e9rationnel"}, "geometry": {"type": "Point", "coordinates": [2.27657635711, 48.8330706432]}, "record_timestamp": "2019-10-08T07:01:10.494000+00:00"}, {"datasetid": "sites-disposant-du-service-paris-wi-fi", "recordid": "5f61116b2fdbb205bfa2e4aba3dfecc15fa253c8", "fields": {"cp": "75011", "nom_site": "CENTRE SPORTIF COUR DES LIONS", "arc_adresse": "9-11 RUE ALPHONSE BAUDIN", "geo_point_2d": [48.8606741278, 2.37034386692], "nombre_de_borne_wifi": 1, "idpw": "PW0076", "geo_shape": {"type": "Point", "coordinates": [2.370343866923958, 48.86067412777189]}, "etat2": "Op\u00e9rationnel"}, "geometry": {"type": "Point", "coordinates": [2.37034386692, 48.8606741278]}, "record_timestamp": "2019-10-08T07:01:10.494000+00:00"}, {"datasetid": "sites-disposant-du-service-paris-wi-fi", "recordid": "8966e566892f9b86f92a598b1309038331b213dc", "fields": {"cp": "75011", "nom_site": "SQUARE CHARONNE", "arc_adresse": "159 RUE DE CHARONNE", "geo_point_2d": [48.8555919367, 2.38959554225], "nombre_de_borne_wifi": 1, "idpw": "PW0160", "geo_shape": {"type": "Point", "coordinates": [2.389595542248922, 48.855591936732615]}, "etat2": "Op\u00e9rationnel"}, "geometry": {"type": "Point", "coordinates": [2.38959554225, 48.8555919367]}, "record_timestamp": "2019-10-08T07:01:10.494000+00:00"}, {"datasetid": "sites-disposant-du-service-paris-wi-fi", "recordid": "4e593c584d265bc9837505db3262cc5edaf74c52", "fields": {"cp": "75013", "nom_site": "SQUARE RENE LEGALL", "arc_adresse": "43 RUE CORVISART", "geo_point_2d": [48.8322068, 2.34741976643], "nombre_de_borne_wifi": 1, "idpw": "PW0069", "geo_shape": {"type": "Point", "coordinates": [2.347419766430832, 48.83220679997317]}, "etat2": "Op\u00e9rationnel"}, "geometry": {"type": "Point", "coordinates": [2.34741976643, 48.8322068]}, "record_timestamp": "2019-10-08T07:01:10.494000+00:00"}, {"datasetid": "sites-disposant-du-service-paris-wi-fi", "recordid": "bbe91ac9da0e26322391e6a6f8ced8058bffd0c8", "fields": {"cp": "75010", "nom_site": "JARDIN VILLEMIN", "arc_adresse": "8 RUE DES RECOLLETS", "geo_point_2d": [48.8744988283, 2.36190493854], "nombre_de_borne_wifi": 2, "idpw": "PW0164", "geo_shape": {"type": "Point", "coordinates": [2.361904938537223, 48.87449882830307]}, "etat2": "Op\u00e9rationnel"}, "geometry": {"type": "Point", "coordinates": [2.36190493854, 48.8744988283]}, "record_timestamp": "2019-10-08T07:01:10.494000+00:00"}, {"datasetid": "sites-disposant-du-service-paris-wi-fi", "recordid": "d6780b9cb76377545816cec2b21631baa7143030", "fields": {"cp": "75010", "nom_site": "MAIRIE DU 10 EME", "arc_adresse": "72 RUE DU FAUBOURG SAINT MARTIN", "geo_point_2d": [48.8717845119, 2.35738264495], "nombre_de_borne_wifi": 3, "idpw": "PW0010", "geo_shape": {"type": "Point", "coordinates": [2.357382644948622, 48.87178451190306]}, "etat2": "Op\u00e9rationnel"}, "geometry": {"type": "Point", "coordinates": [2.35738264495, 48.8717845119]}, "record_timestamp": "2019-10-08T07:01:10.494000+00:00"}, {"datasetid": "sites-disposant-du-service-paris-wi-fi", "recordid": "623bb64a89220c58b714a2fe7482e27534b8a874", "fields": {"cp": "75002", "nom_site": "MAIRIE DU 2 EME", "arc_adresse": "8 RUE DE LA BANQUE", "geo_point_2d": [48.8668345275, 2.34045079989], "nombre_de_borne_wifi": 1, "idpw": "PW0034", "geo_shape": {"type": "Point", "coordinates": [2.340450799891371, 48.86683452754676]}, "etat2": "Op\u00e9rationnel"}, "geometry": {"type": "Point", "coordinates": [2.34045079989, 48.8668345275]}, "record_timestamp": "2019-10-08T07:01:10.494000+00:00"}, {"datasetid": "sites-disposant-du-service-paris-wi-fi", "recordid": "dec645430584c090051c5c4fefed55bc7d9c0ab9", "fields": {"cp": "75012", "nom_site": "PARC DE BERCY (MAISON DU LAC)", "arc_adresse": "1 COUR CHAMONARD", "geo_point_2d": [48.8350786407, 2.38453222624], "nombre_de_borne_wifi": 1, "idpw": "PW0058-1", "geo_shape": {"type": "Point", "coordinates": [2.384532226240482, 48.83507864071959]}, "etat2": "Op\u00e9rationnel"}, "geometry": {"type": "Point", "coordinates": [2.38453222624, 48.8350786407]}, "record_timestamp": "2019-10-08T07:01:10.494000+00:00"}, {"datasetid": "sites-disposant-du-service-paris-wi-fi", "recordid": "815b575a524eb7d96d67acf2a31822fcb755e616", "fields": {"cp": "75013", "nom_site": "PARC DE CHOISY", "arc_adresse": "160 AVENUE DE CHOISY", "geo_point_2d": [48.8281858231, 2.3586267374], "nombre_de_borne_wifi": 2, "idpw": "PW0157", "geo_shape": {"type": "Point", "coordinates": [2.358626737402552, 48.82818582306963]}, "etat2": "Op\u00e9rationnel"}, "geometry": {"type": "Point", "coordinates": [2.3586267374, 48.8281858231]}, "record_timestamp": "2019-10-08T07:01:10.494000+00:00"}, {"datasetid": "sites-disposant-du-service-paris-wi-fi", "recordid": "6e80534cd15531f05ca892e0f4a701b0c733719d", "fields": {"cp": "75019", "nom_site": "PARC DES BUTTES CHAUMONT - CARREL", "arc_adresse": "4 PLACE ARMAND CARREL", "geo_point_2d": [48.8827940633, 2.3827054256], "nombre_de_borne_wifi": 2, "idpw": "PW0182", "geo_shape": {"type": "Point", "coordinates": [2.382705425599561, 48.882794063344434]}, "etat2": "Op\u00e9rationnel"}, "geometry": {"type": "Point", "coordinates": [2.3827054256, 48.8827940633]}, "record_timestamp": "2019-10-08T07:01:10.494000+00:00"}, {"datasetid": "sites-disposant-du-service-paris-wi-fi", "recordid": "6e902a24f007b4c587cc43c65efb66e64b2f1702", "fields": {"cp": "75004", "nom_site": "BERGES RIVE DROITE - LES NAUTES", "arc_adresse": "BERGE DE SEINE RIVE DROITE - 5 QUAI DES CELESTINS", "geo_point_2d": [48.8523533398, 2.3603109745], "nombre_de_borne_wifi": 1, "idpw": "PW0150", "geo_shape": {"type": "Point", "coordinates": [2.360310974496217, 48.8523533398358]}, "etat2": "Op\u00e9rationnel"}, "geometry": {"type": "Point", "coordinates": [2.3603109745, 48.8523533398]}, "record_timestamp": "2019-10-08T07:01:10.494000+00:00"}, {"datasetid": "sites-disposant-du-service-paris-wi-fi", "recordid": "659e4babab12e385ea90c49b00de14f14697113d", "fields": {"cp": "75019", "nom_site": "SQUARE DE LA MARSEILLAISE", "arc_adresse": "1B RUE DE LA MARSEILLAISE", "geo_point_2d": [48.8872868418, 2.39806224303], "nombre_de_borne_wifi": 1, "idpw": "PW0064", "geo_shape": {"type": "Point", "coordinates": [2.398062243029122, 48.88728684181337]}, "etat2": "Op\u00e9rationnel"}, "geometry": {"type": "Point", "coordinates": [2.39806224303, 48.8872868418]}, "record_timestamp": "2019-10-08T07:01:10.494000+00:00"}, {"datasetid": "sites-disposant-du-service-paris-wi-fi", "recordid": "6456d57e214bc1fd55e4e937e896dcd39d46356d", "fields": {"cp": "75011", "nom_site": "SQUARE ORILLON JULES VERNES", "arc_adresse": "19B RUE DE L ORILLON", "geo_point_2d": [48.8698926807, 2.37511728428], "nombre_de_borne_wifi": 1, "idpw": "PW0056", "geo_shape": {"type": "Point", "coordinates": [2.375117284276381, 48.86989268070317]}, "etat2": "Op\u00e9rationnel"}, "geometry": {"type": "Point", "coordinates": [2.37511728428, 48.8698926807]}, "record_timestamp": "2019-10-08T07:01:10.494000+00:00"}, {"datasetid": "sites-disposant-du-service-paris-wi-fi", "recordid": "faacc5247b99988cc58af8648b25cb4e2cfaa6e9", "fields": {"cp": "75017", "nom_site": "CENTRE SPORTIF LEON BIANCOTTO", "arc_adresse": "6 AVENUE DE LA PORTE DE CLICHY", "geo_point_2d": [48.8957682345, 2.31183047537], "nombre_de_borne_wifi": 1, "idpw": "PW0098", "geo_shape": {"type": "Point", "coordinates": [2.311830475367834, 48.89576823451992]}, "etat2": "Op\u00e9rationnel"}, "geometry": {"type": "Point", "coordinates": [2.31183047537, 48.8957682345]}, "record_timestamp": "2019-10-08T07:01:10.494000+00:00"}, {"datasetid": "sites-disposant-du-service-paris-wi-fi", "recordid": "b8f970f371eb9d6c831fcd0364cd38165c7bbcbe", "fields": {"cp": "75012", "nom_site": "BIBLIOTHEQUE SAINT ELOI", "arc_adresse": "23 RUE DU COLONEL ROZANOFF", "geo_point_2d": [48.8455291572, 2.38711098608], "nombre_de_borne_wifi": 2, "idpw": "PW0141", "geo_shape": {"type": "Point", "coordinates": [2.387110986075708, 48.84552915718271]}, "etat2": "Op\u00e9rationnel"}, "geometry": {"type": "Point", "coordinates": [2.38711098608, 48.8455291572]}, "record_timestamp": "2019-10-08T07:01:10.494000+00:00"}, {"datasetid": "sites-disposant-du-service-paris-wi-fi", "recordid": "1569cac0ca6e53d9e6a401e64bc4f425d503085a", "fields": {"cp": "75013", "nom_site": "BIBLIOTHEQUE MELVILLE ET MARGUERITE DURAND", "arc_adresse": "79 RUE NATIONALE", "geo_point_2d": [48.8267869711, 2.36643991184], "nombre_de_borne_wifi": 3, "geo_shape": {"type": "Point", "coordinates": [2.366439911836686, 48.82678697107449]}, "etat2": "Ferm\u00e9 pour travaux"}, "geometry": {"type": "Point", "coordinates": [2.36643991184, 48.8267869711]}, "record_timestamp": "2019-10-08T07:01:10.494000+00:00"}, {"datasetid": "sites-disposant-du-service-paris-wi-fi", "recordid": "1245ed3b4d23c1eace55b693656cc290295e1fdf", "fields": {"cp": "75018", "nom_site": "ESPACE GLISSE DES FILLETTES", "arc_adresse": "54 BOULEVARD NEY", "geo_point_2d": [48.8987598139, 2.36350693511], "nombre_de_borne_wifi": 1, "idpw": "PW0093", "geo_shape": {"type": "Point", "coordinates": [2.363506935109957, 48.89875981393057]}, "etat2": "Op\u00e9rationnel"}, "geometry": {"type": "Point", "coordinates": [2.36350693511, 48.8987598139]}, "record_timestamp": "2019-10-08T07:01:10.494000+00:00"}, {"datasetid": "sites-disposant-du-service-paris-wi-fi", "recordid": "8bc4cb18b38a72cf4d3d4cff8891095798d6437f", "fields": {"cp": "75018", "nom_site": "BIBLIOTHEQUE ROBERT SABATIER", "arc_adresse": "29 RUE HERMEL", "geo_point_2d": [48.891536321, 2.34443632011], "nombre_de_borne_wifi": 3, "geo_shape": {"type": "Point", "coordinates": [2.344436320114187, 48.89153632102747]}, "etat2": "Ferm\u00e9 pour travaux"}, "geometry": {"type": "Point", "coordinates": [2.34443632011, 48.891536321]}, "record_timestamp": "2019-10-08T07:01:10.494000+00:00"}, {"datasetid": "sites-disposant-du-service-paris-wi-fi", "recordid": "9962e78b7eaccbe3a8483bccd252f88b084e1134", "fields": {"cp": "75004", "nom_site": "HOTEL DE VILLE 3EME", "arc_adresse": "4 PLACE DE L HOTEL DE VILLE", "geo_point_2d": [48.8563280136, 2.35290178599], "nombre_de_borne_wifi": 3, "idpw": "PW0122-4", "geo_shape": {"type": "Point", "coordinates": [2.352901785985004, 48.856328013556855]}, "etat2": "Op\u00e9rationnel"}, "geometry": {"type": "Point", "coordinates": [2.35290178599, 48.8563280136]}, "record_timestamp": "2019-10-08T07:01:10.494000+00:00"}, {"datasetid": "sites-disposant-du-service-paris-wi-fi", "recordid": "e52e79a14daff0f8dcac9106a01c7aecd70c12c3", "fields": {"cp": "75013", "nom_site": "BIBLIOTHEQUE GLACIERE MARINA TSVETA\u00cfEVA", "arc_adresse": "132 RUE DE LA GLACIERE", "geo_point_2d": [48.8273180542, 2.34199371698], "nombre_de_borne_wifi": 2, "idpw": "PW0125", "geo_shape": {"type": "Point", "coordinates": [2.341993716984507, 48.82731805418922]}, "etat2": "Op\u00e9rationnel"}, "geometry": {"type": "Point", "coordinates": [2.34199371698, 48.8273180542]}, "record_timestamp": "2019-10-08T07:01:10.494000+00:00"}, {"datasetid": "sites-disposant-du-service-paris-wi-fi", "recordid": "6e56798386ea7e8d3ce46cc6ba320f4ed84104c1", "fields": {"cp": "75014", "nom_site": "MUSEE DE LA LIBERATION", "arc_adresse": "4 AVENUE DU COLONEL ROL TANGUY PAVILLON OUEST", "geo_point_2d": [48.8339906348, 2.33201446003], "nombre_de_borne_wifi": 5, "idpw": "PW0201", "geo_shape": {"type": "Point", "coordinates": [2.332014460030507, 48.83399063478855]}, "etat2": "Op\u00e9rationnel"}, "geometry": {"type": "Point", "coordinates": [2.33201446003, 48.8339906348]}, "record_timestamp": "2019-10-08T07:01:10.494000+00:00"}, {"datasetid": "sites-disposant-du-service-paris-wi-fi", "recordid": "0cb5fa887edb3ed6d90e0c414431e295c32f3329", "fields": {"cp": "75019", "nom_site": "PARC DES BUTTES CHAUMONT - BOLIVAR", "arc_adresse": "1 RUE BOTZARIS", "geo_point_2d": [48.8764730512, 2.38101742013], "nombre_de_borne_wifi": 1, "idpw": "PW0159-1", "geo_shape": {"type": "Point", "coordinates": [2.381017420133907, 48.87647305121454]}, "etat2": "Op\u00e9rationnel"}, "geometry": {"type": "Point", "coordinates": [2.38101742013, 48.8764730512]}, "record_timestamp": "2019-10-08T07:01:10.494000+00:00"}, {"datasetid": "sites-disposant-du-service-paris-wi-fi", "recordid": "5b422e47afe570c1248e7d90f982dd06e2e4486f", "fields": {"cp": "75008", "nom_site": "PARC MONCEAU  - ENTREE PARC", "arc_adresse": "1 PLACE DE LA REPUBLIQUE DOMINICAINE", "geo_point_2d": [48.87994077, 2.30749907611], "nombre_de_borne_wifi": 3, "idpw": "PW0151-1", "geo_shape": {"type": "Point", "coordinates": [2.307499076107147, 48.879940770042616]}, "etat2": "Op\u00e9rationnel"}, "geometry": {"type": "Point", "coordinates": [2.30749907611, 48.87994077]}, "record_timestamp": "2019-10-08T07:01:10.494000+00:00"}, {"datasetid": "sites-disposant-du-service-paris-wi-fi", "recordid": "4147f259a8f312f8af852a78ce228054759e1dba", "fields": {"cp": "75005", "nom_site": "MAIRIE DU 5 EME", "arc_adresse": "21 PLACE DU PANTHEON", "geo_point_2d": [48.846191709, 2.3445808787], "nombre_de_borne_wifi": 2, "idpw": "PW0021", "geo_shape": {"type": "Point", "coordinates": [2.344580878695056, 48.8461917089586]}, "etat2": "Op\u00e9rationnel"}, "geometry": {"type": "Point", "coordinates": [2.3445808787, 48.846191709]}, "record_timestamp": "2019-10-08T07:01:10.494000+00:00"}, {"datasetid": "sites-disposant-du-service-paris-wi-fi", "recordid": "693ad8a5e98a23e62729c4325bd2e08c4c363406", "fields": {"cp": "75012", "nom_site": "MAISON DE LA VIE ASSOCIATIVE ET CITOYENNE 12", "arc_adresse": "181 AVENUE DAUMESNIL", "geo_point_2d": [48.8404878126, 2.39250677653], "nombre_de_borne_wifi": 6, "idpw": "PW0030", "geo_shape": {"type": "Point", "coordinates": [2.392506776531802, 48.84048781257588]}, "etat2": "Op\u00e9rationnel"}, "geometry": {"type": "Point", "coordinates": [2.39250677653, 48.8404878126]}, "record_timestamp": "2019-10-08T07:01:10.494000+00:00"}, {"datasetid": "sites-disposant-du-service-paris-wi-fi", "recordid": "c1aa557a75508c0c05065c23209226eca10e6d41", "fields": {"cp": "75020", "nom_site": "CENTRE SPORTIF PYRENEES", "arc_adresse": "296 RUE DES PYRENEES", "geo_point_2d": [48.8719533728, 2.39230250037], "nombre_de_borne_wifi": 1, "idpw": "PW0072", "geo_shape": {"type": "Point", "coordinates": [2.392302500371264, 48.871953372804505]}, "etat2": "Op\u00e9rationnel"}, "geometry": {"type": "Point", "coordinates": [2.39230250037, 48.8719533728]}, "record_timestamp": "2019-10-08T07:01:10.494000+00:00"}, {"datasetid": "sites-disposant-du-service-paris-wi-fi", "recordid": "6aa322c02ef96c97e52f65a6797e5e4b3dff61c6", "fields": {"cp": "75016", "nom_site": "PISCINE AUTEUIL", "arc_adresse": "1 ROUTE DES LACS A PASSY", "geo_point_2d": [48.858152594, 2.26156748231], "nombre_de_borne_wifi": 1, "idpw": "PW0102", "geo_shape": {"type": "Point", "coordinates": [2.261567482309457, 48.858152594040384]}, "etat2": "Op\u00e9rationnel"}, "geometry": {"type": "Point", "coordinates": [2.26156748231, 48.858152594]}, "record_timestamp": "2019-10-08T07:01:10.494000+00:00"}, {"datasetid": "sites-disposant-du-service-paris-wi-fi", "recordid": "4ce47c8162fee1b819847f4bb050b7d33de980dd", "fields": {"cp": "75013", "nom_site": "BIBLIOTHEQUE ITALIE", "arc_adresse": "213 BOULEVARD VINCENT AURIOL", "geo_point_2d": [48.830786809, 2.35675447673], "nombre_de_borne_wifi": 1, "idpw": "PW0114", "geo_shape": {"type": "Point", "coordinates": [2.356754476729749, 48.83078680904554]}, "etat2": "Op\u00e9rationnel"}, "geometry": {"type": "Point", "coordinates": [2.35675447673, 48.830786809]}, "record_timestamp": "2019-10-08T07:01:10.494000+00:00"}, {"datasetid": "sites-disposant-du-service-paris-wi-fi", "recordid": "e6231436fe1f724031ebf436d897391a99e2a474", "fields": {"cp": "75018", "nom_site": "MAISON DE LA VIE ASSOCIATIVE ET CITOYENNE 18", "arc_adresse": "15 PASSAGE RAMEY", "geo_point_2d": [48.890069083, 2.34733549712], "nombre_de_borne_wifi": 2, "idpw": "PW0032", "geo_shape": {"type": "Point", "coordinates": [2.347335497120627, 48.8900690830436]}, "etat2": "Op\u00e9rationnel"}, "geometry": {"type": "Point", "coordinates": [2.34733549712, 48.890069083]}, "record_timestamp": "2019-10-08T07:01:10.494000+00:00"}, {"datasetid": "sites-disposant-du-service-paris-wi-fi", "recordid": "000df9316698b018ce97e7173a2ef3a272d70583", "fields": {"cp": "75016", "nom_site": "PARC DE BAGATELLE", "arc_adresse": "ROUTE DE SEVRES (NEUILLY)", "geo_point_2d": [48.8617047022, 2.24011836147], "nombre_de_borne_wifi": 1, "geo_shape": {"type": "Point", "coordinates": [2.240118361469865, 48.86170470216155]}, "etat2": "En \u00e9tude"}, "geometry": {"type": "Point", "coordinates": [2.24011836147, 48.8617047022]}, "record_timestamp": "2019-10-08T07:01:10.494000+00:00"}, {"datasetid": "sites-disposant-du-service-paris-wi-fi", "recordid": "20a083b2251081c6cd007658760fa0d39063522f", "fields": {"cp": "75006", "nom_site": "ESPLANADE GASTON MONNERVILLE", "arc_adresse": "7 PLACE ANDRE HONNORAT", "geo_point_2d": [48.8442787147, 2.3370383094], "nombre_de_borne_wifi": 1, "geo_shape": {"type": "Point", "coordinates": [2.337038309404682, 48.8442787146687]}, "etat2": "En d\u00e9ploiement"}, "geometry": {"type": "Point", "coordinates": [2.3370383094, 48.8442787147]}, "record_timestamp": "2019-10-08T07:01:10.494000+00:00"}, {"datasetid": "sites-disposant-du-service-paris-wi-fi", "recordid": "326435ba1937e13ebaebe67d1667ae361f997b63", "fields": {"cp": "75014", "nom_site": "BIBLIOTHEQUE BRASSENS", "arc_adresse": "38 RUE GASSENDI", "geo_point_2d": [48.8337666097, 2.32585597789], "nombre_de_borne_wifi": 2, "idpw": "PW0054", "geo_shape": {"type": "Point", "coordinates": [2.325855977890741, 48.83376660969609]}, "etat2": "Op\u00e9rationnel"}, "geometry": {"type": "Point", "coordinates": [2.32585597789, 48.8337666097]}, "record_timestamp": "2019-10-08T07:01:10.494000+00:00"}, {"datasetid": "sites-disposant-du-service-paris-wi-fi", "recordid": "11c511a3ba1b38f4b6db5691b96d64ced6f06c3d", "fields": {"cp": "75012", "nom_site": "BIBLIOTHEQUE HELENE BERR", "arc_adresse": "70 RUE DE PICPUS", "geo_point_2d": [48.8425411215, 2.39747688968], "nombre_de_borne_wifi": 4, "idpw": "PW0051", "geo_shape": {"type": "Point", "coordinates": [2.397476889678179, 48.84254112148939]}, "etat2": "Op\u00e9rationnel"}, "geometry": {"type": "Point", "coordinates": [2.39747688968, 48.8425411215]}, "record_timestamp": "2019-10-08T07:01:10.494000+00:00"}, {"datasetid": "sites-disposant-du-service-paris-wi-fi", "recordid": "26f0015dbfe5c4fc8c0ff2020db15ce79770c141", "fields": {"cp": "75007", "nom_site": "ESPLANADE DES INVALIDES", "arc_adresse": "1 RUE PAUL ET JEAN LEROLLE", "geo_point_2d": [48.8581897423, 2.31289426397], "nombre_de_borne_wifi": 1, "idpw": "PW0161", "geo_shape": {"type": "Point", "coordinates": [2.312894263966205, 48.85818974233776]}, "etat2": "Op\u00e9rationnel"}, "geometry": {"type": "Point", "coordinates": [2.31289426397, 48.8581897423]}, "record_timestamp": "2019-10-08T07:01:10.494000+00:00"}, {"datasetid": "sites-disposant-du-service-paris-wi-fi", "recordid": "166de4173d73a228be3cf4b20e29882a970538c0", "fields": {"cp": "75004", "nom_site": "BIBLIOTHEQUE ARTHUR RIMBAUD", "arc_adresse": "2 PLACE BAUDOYER", "geo_point_2d": [48.8561383736, 2.35593752424], "nombre_de_borne_wifi": 2, "idpw": "PW0132-2", "geo_shape": {"type": "Point", "coordinates": [2.3559375242406873, 48.85613837361523]}, "etat2": "Op\u00e9rationnel"}, "geometry": {"type": "Point", "coordinates": [2.35593752424, 48.8561383736]}, "record_timestamp": "2019-10-08T07:01:10.494000+00:00"}, {"datasetid": "sites-disposant-du-service-paris-wi-fi", "recordid": "363b7191119eddccb7ca0d960a4bd493b0e5749b", "fields": {"cp": "75015", "nom_site": "MAIRIE DU 15 EME", "arc_adresse": "31 RUE DE PECLET", "geo_point_2d": [48.8415157494, 2.29988438758], "nombre_de_borne_wifi": 2, "idpw": "PW0014", "geo_shape": {"type": "Point", "coordinates": [2.299884387584236, 48.84151574940015]}, "etat2": "Op\u00e9rationnel"}, "geometry": {"type": "Point", "coordinates": [2.29988438758, 48.8415157494]}, "record_timestamp": "2019-10-08T07:01:10.494000+00:00"}, {"datasetid": "sites-disposant-du-service-paris-wi-fi", "recordid": "47cb63585c321ef6a13bd3e706785647d39abbba", "fields": {"cp": "75007", "nom_site": "PARC CHAMPS DE MARS - 2", "arc_adresse": "AVENUE CHARLES RISLER", "geo_point_2d": [48.8546101225, 2.30019063073], "nombre_de_borne_wifi": 1, "idpw": "PW0165-1", "geo_shape": {"type": "Point", "coordinates": [2.300190630733142, 48.85461012252293]}, "etat2": "Op\u00e9rationnel"}, "geometry": {"type": "Point", "coordinates": [2.30019063073, 48.8546101225]}, "record_timestamp": "2019-10-08T07:01:10.494000+00:00"}, {"datasetid": "sites-disposant-du-service-paris-wi-fi", "recordid": "4d79b52b67b11478fcab50fda8d57ac5fef2a5c4", "fields": {"cp": "75012", "nom_site": "PARC ZOOLOGIQUE", "arc_adresse": "AVENUE DAUMESNIL", "geo_point_2d": [48.8335176717, 2.41632870891], "nombre_de_borne_wifi": 1, "geo_shape": {"type": "Point", "coordinates": [2.416328708911516, 48.83351767169454]}, "etat2": "En \u00e9tude"}, "geometry": {"type": "Point", "coordinates": [2.41632870891, 48.8335176717]}, "record_timestamp": "2019-10-08T07:01:10.494000+00:00"}, {"datasetid": "sites-disposant-du-service-paris-wi-fi", "recordid": "60fd5d498a8d8c256efa85687fba0a451a7e54f0", "fields": {"cp": "75014", "nom_site": "MAIRIE DU 14 EME", "arc_adresse": "2 PLACE FERDINAND BRUNOT", "geo_point_2d": [48.8329972796, 2.32685435695], "nombre_de_borne_wifi": 1, "idpw": "PW0035", "geo_shape": {"type": "Point", "coordinates": [2.326854356949058, 48.83299727958771]}, "etat2": "Op\u00e9rationnel"}, "geometry": {"type": "Point", "coordinates": [2.32685435695, 48.8329972796]}, "record_timestamp": "2019-10-08T07:01:10.494000+00:00"}, {"datasetid": "sites-disposant-du-service-paris-wi-fi", "recordid": "2f45c18db4a638bacd677870bd6d1d8d08930b04", "fields": {"cp": "75014", "nom_site": "POINT PARIS EMPLOI", "arc_adresse": "12 RUE PIERRE CASTAGNOU", "geo_point_2d": [48.8325230687, 2.32581431984], "nombre_de_borne_wifi": 1, "idpw": "PW0195", "geo_shape": {"type": "Point", "coordinates": [2.325814319838129, 48.832523068714075]}, "etat2": "Op\u00e9rationnel"}, "geometry": {"type": "Point", "coordinates": [2.32581431984, 48.8325230687]}, "record_timestamp": "2019-10-08T07:01:10.494000+00:00"}, {"datasetid": "sites-disposant-du-service-paris-wi-fi", "recordid": "b5394eb97adf3b5fe9d3424f4416a904a9f47975", "fields": {"cp": "75012", "nom_site": "PARC DE BERCY (JARDINAGE)", "arc_adresse": "1 COURS SAIT EMILION", "geo_point_2d": [48.8324189858, 2.3854831767], "nombre_de_borne_wifi": 1, "idpw": "PW0058", "geo_shape": {"type": "Point", "coordinates": [2.385483176701273, 48.83241898581485]}, "etat2": "Op\u00e9rationnel"}, "geometry": {"type": "Point", "coordinates": [2.3854831767, 48.8324189858]}, "record_timestamp": "2019-10-08T07:01:10.494000+00:00"}, {"datasetid": "sites-disposant-du-service-paris-wi-fi", "recordid": "03497ff17f56fc795edc522c8f71f2e64ce97aeb", "fields": {"cp": "75019", "nom_site": "PARC DES BUTTES CHAUMONT - VILLETTE", "arc_adresse": "1 RUE BOTZARIS", "geo_point_2d": [48.8796817468, 2.38832763739], "nombre_de_borne_wifi": 1, "idpw": "PW0159", "geo_shape": {"type": "Point", "coordinates": [2.388327637394474, 48.879681746818164]}, "etat2": "Op\u00e9rationnel"}, "geometry": {"type": "Point", "coordinates": [2.38832763739, 48.8796817468]}, "record_timestamp": "2019-10-08T07:01:10.494000+00:00"}, {"datasetid": "sites-disposant-du-service-paris-wi-fi", "recordid": "92db58848205037fb27ec8a187d28be3761e165e", "fields": {"cp": "75011", "nom_site": "MAISON DE LA VIE ASSOCIATIVE ET CITOYENNE  11", "arc_adresse": "8 RUE DU GENERAL RENAULT", "geo_point_2d": [48.8612659255, 2.37850247568], "nombre_de_borne_wifi": 2, "idpw": "PW0029", "geo_shape": {"type": "Point", "coordinates": [2.378502475675964, 48.86126592554234]}, "etat2": "Op\u00e9rationnel"}, "geometry": {"type": "Point", "coordinates": [2.37850247568, 48.8612659255]}, "record_timestamp": "2019-10-08T07:01:10.494000+00:00"}, {"datasetid": "sites-disposant-du-service-paris-wi-fi", "recordid": "5318ba4a6c3c08a1d9a92409aa01c58febce5217", "fields": {"cp": "75019", "nom_site": "MAISON DE LA VIE ASSOCIATIVE ET CITOYENNE  19", "arc_adresse": "20 RUE EDOUARD PAILLERON", "geo_point_2d": [48.8804061535, 2.37654510623], "nombre_de_borne_wifi": 1, "idpw": "PW0033", "geo_shape": {"type": "Point", "coordinates": [2.376545106225318, 48.88040615349807]}, "etat2": "Op\u00e9rationnel"}, "geometry": {"type": "Point", "coordinates": [2.37654510623, 48.8804061535]}, "record_timestamp": "2019-10-08T07:01:10.494000+00:00"}, {"datasetid": "sites-disposant-du-service-paris-wi-fi", "recordid": "e7677938c04abf60a1afc4e33857c56873696b4f", "fields": {"cp": "75013", "nom_site": "PROMENADE PRES DU BATOFAR", "arc_adresse": "QUAI FRANCOIS MAURIAC", "geo_point_2d": [48.8333568552, 2.37875894842], "nombre_de_borne_wifi": 1, "geo_shape": {"type": "Point", "coordinates": [2.378758948418535, 48.83335685516519]}, "etat2": "En \u00e9tude"}, "geometry": {"type": "Point", "coordinates": [2.37875894842, 48.8333568552]}, "record_timestamp": "2019-10-08T07:01:10.494000+00:00"}, {"datasetid": "sites-disposant-du-service-paris-wi-fi", "recordid": "12cd3ea0e5ad5c037cf67fc7755a25ecebd60dbf", "fields": {"cp": "75005", "nom_site": "BIBLIOTHEQUE HEURE JOYEUSE", "arc_adresse": "6-12 RUE DES PRETRES ST-SEVERIN", "geo_point_2d": [48.8519010105, 2.34494821891], "nombre_de_borne_wifi": 2, "idpw": "PW0136", "geo_shape": {"type": "Point", "coordinates": [2.344948218913558, 48.8519010104593]}, "etat2": "Op\u00e9rationnel"}, "geometry": {"type": "Point", "coordinates": [2.34494821891, 48.8519010105]}, "record_timestamp": "2019-10-08T07:01:10.494000+00:00"}, {"datasetid": "sites-disposant-du-service-paris-wi-fi", "recordid": "4d645323a127f7094387bc579fd7fea2c5fc08b2", "fields": {"cp": "75019", "nom_site": "BASE NAUTIQUE DE LA VILLETTE", "arc_adresse": "41 QUAI DE LA LOIRE", "geo_point_2d": [48.8875236317, 2.3788915948], "nombre_de_borne_wifi": 1, "idpw": "PW0078", "geo_shape": {"type": "Point", "coordinates": [2.378891594800032, 48.88752363166015]}, "etat2": "Op\u00e9rationnel"}, "geometry": {"type": "Point", "coordinates": [2.3788915948, 48.8875236317]}, "record_timestamp": "2019-10-08T07:01:10.494000+00:00"}, {"datasetid": "sites-disposant-du-service-paris-wi-fi", "recordid": "a0009673cd83b20077c6cfa3217e155aa64aabb1", "fields": {"cp": "75019", "nom_site": "BIBLIOTHEQUE CRIMEE", "arc_adresse": "42-44 RUE PETIT", "geo_point_2d": [48.8848820164, 2.38305018751], "nombre_de_borne_wifi": 1, "idpw": "PW0004", "geo_shape": {"type": "Point", "coordinates": [2.383050187514214, 48.884882016364315]}, "etat2": "Op\u00e9rationnel"}, "geometry": {"type": "Point", "coordinates": [2.38305018751, 48.8848820164]}, "record_timestamp": "2019-10-08T07:01:10.494000+00:00"}, {"datasetid": "sites-disposant-du-service-paris-wi-fi", "recordid": "2cfb21e660b6597d6634c054aea57ff5cb1fe2f2", "fields": {"cp": "75018", "nom_site": "BIBLIOTHEQUE GOUTTE D OR", "arc_adresse": "2-4 RUE FLEURY", "geo_point_2d": [48.8844631298, 2.35414160142], "nombre_de_borne_wifi": 3, "idpw": "PW0006", "geo_shape": {"type": "Point", "coordinates": [2.354141601420772, 48.88446312981793]}, "etat2": "Op\u00e9rationnel"}, "geometry": {"type": "Point", "coordinates": [2.35414160142, 48.8844631298]}, "record_timestamp": "2019-10-08T07:01:10.494000+00:00"}, {"datasetid": "sites-disposant-du-service-paris-wi-fi", "recordid": "4c31e21df42df7d2a74372d5d7bb87ecc7040256", "fields": {"cp": "75001", "nom_site": "MAIRIE DU 1 ER", "arc_adresse": "4 PLACE DU LOUVRE", "geo_point_2d": [48.8600835266, 2.34106447616], "nombre_de_borne_wifi": 2, "idpw": "PW0127", "geo_shape": {"type": "Point", "coordinates": [2.341064476164004, 48.860083526572126]}, "etat2": "Op\u00e9rationnel"}, "geometry": {"type": "Point", "coordinates": [2.34106447616, 48.8600835266]}, "record_timestamp": "2019-10-08T07:01:10.494000+00:00"}, {"datasetid": "sites-disposant-du-service-paris-wi-fi", "recordid": "f3c40853cb2f8ba9df9a2a5744db131686ea2ed6", "fields": {"cp": "75001", "nom_site": "MEDIATHEQUE LA CANOPEE LA FONTAINE", "arc_adresse": "10 PASSAGE DE LA CANOPEE", "geo_point_2d": [48.8618194855, 2.34764390328], "nombre_de_borne_wifi": 5, "idpw": "PW0143", "geo_shape": {"type": "Point", "coordinates": [2.347643903283826, 48.861819485480225]}, "etat2": "Op\u00e9rationnel"}, "geometry": {"type": "Point", "coordinates": [2.34764390328, 48.8618194855]}, "record_timestamp": "2019-10-08T07:01:10.494000+00:00"}, {"datasetid": "sites-disposant-du-service-paris-wi-fi", "recordid": "fd2c69d17013bd8f0caf5f99ce5a87d6f9d257a8", "fields": {"cp": "75001", "nom_site": "MEDIATHEQUE MUSICALE DE PARIS (HALLES)", "arc_adresse": "8 PORTE SAINT EUSTACHE", "geo_point_2d": [48.862650133, 2.34591610501], "nombre_de_borne_wifi": 2, "idpw": "PW0020", "geo_shape": {"type": "Point", "coordinates": [2.345916105005208, 48.86265013302889]}, "etat2": "Op\u00e9rationnel"}, "geometry": {"type": "Point", "coordinates": [2.34591610501, 48.862650133]}, "record_timestamp": "2019-10-08T07:01:10.494000+00:00"}, {"datasetid": "sites-disposant-du-service-paris-wi-fi", "recordid": "67d2b307a2d413d89af19038b730d88232dd5b54", "fields": {"cp": "75004", "nom_site": "SQUARE LOUIS XIII", "arc_adresse": "30 PLACE DES VOSGES", "geo_point_2d": [48.8556307839, 2.36565840313], "nombre_de_borne_wifi": 1, "idpw": "PW0163", "geo_shape": {"type": "Point", "coordinates": [2.365658403131316, 48.85563078391004]}, "etat2": "Op\u00e9rationnel"}, "geometry": {"type": "Point", "coordinates": [2.36565840313, 48.8556307839]}, "record_timestamp": "2019-10-08T07:01:10.494000+00:00"}, {"datasetid": "sites-disposant-du-service-paris-wi-fi", "recordid": "c8b956c799ccf9a3b3a436a41981db3d39c659ac", "fields": {"cp": "75013", "nom_site": "CENTRE SPORTIF DUNOIS", "arc_adresse": "70 RUE DUNOIS", "geo_point_2d": [48.8331703217, 2.36627858766], "nombre_de_borne_wifi": 1, "idpw": "PW0079", "geo_shape": {"type": "Point", "coordinates": [2.366278587662253, 48.833170321660546]}, "etat2": "Op\u00e9rationnel"}, "geometry": {"type": "Point", "coordinates": [2.36627858766, 48.8331703217]}, "record_timestamp": "2019-10-08T07:01:10.494000+00:00"}, {"datasetid": "sites-disposant-du-service-paris-wi-fi", "recordid": "6e728559dcd12d1bd3859ec18ffde64aae108dac", "fields": {"cp": "75008", "nom_site": "GYMNASE BEAUJON", "arc_adresse": "7 ALLEE LOUIS DE FUNES", "geo_point_2d": [48.8753645715, 2.30462671902], "nombre_de_borne_wifi": 1, "idpw": "PW0095", "geo_shape": {"type": "Point", "coordinates": [2.304626719021803, 48.87536457154315]}, "etat2": "Op\u00e9rationnel"}, "geometry": {"type": "Point", "coordinates": [2.30462671902, 48.8753645715]}, "record_timestamp": "2019-10-08T07:01:10.494000+00:00"}, {"datasetid": "sites-disposant-du-service-paris-wi-fi", "recordid": "401c98caab2753a9042baa65013ec941002d65c1", "fields": {"cp": "75015", "nom_site": "BIBLIOTHEQUE MARGUERITE YOURCENAR", "arc_adresse": "41 RUE D ALLERAY", "geo_point_2d": [48.836806921, 2.30348080218], "nombre_de_borne_wifi": 5, "idpw": "PW0046", "geo_shape": {"type": "Point", "coordinates": [2.303480802178815, 48.836806921024824]}, "etat2": "Op\u00e9rationnel"}, "geometry": {"type": "Point", "coordinates": [2.30348080218, 48.836806921]}, "record_timestamp": "2019-10-08T07:01:10.494000+00:00"}, {"datasetid": "sites-disposant-du-service-paris-wi-fi", "recordid": "1cf591db53e97af1d8fdad53dd9efb75606cae3f", "fields": {"cp": "75005", "nom_site": "SQUARE PAUL LANGEVIN", "arc_adresse": "12 RUE DES ECOLES", "geo_point_2d": [48.8480849077, 2.34964310763], "nombre_de_borne_wifi": 2, "idpw": "PW0154", "geo_shape": {"type": "Point", "coordinates": [2.34964310762926, 48.84808490765896]}, "etat2": "Op\u00e9rationnel"}, "geometry": {"type": "Point", "coordinates": [2.34964310763, 48.8480849077]}, "record_timestamp": "2019-10-08T07:01:10.494000+00:00"}, {"datasetid": "sites-disposant-du-service-paris-wi-fi", "recordid": "f25b053cfdad7290081dec3dbca1b2885172bcde", "fields": {"cp": "75020", "nom_site": "GYMNASE VIGNOLES EST", "arc_adresse": "83-91 RUE DES HAIES", "geo_point_2d": [48.8552404998, 2.4039028856], "nombre_de_borne_wifi": 1, "idpw": "PW0073", "geo_shape": {"type": "Point", "coordinates": [2.403902885604972, 48.85524049982196]}, "etat2": "Op\u00e9rationnel"}, "geometry": {"type": "Point", "coordinates": [2.4039028856, 48.8552404998]}, "record_timestamp": "2019-10-08T07:01:10.494000+00:00"}, {"datasetid": "sites-disposant-du-service-paris-wi-fi", "recordid": "fdd3a66bf36889606c1afea65303d1a5bfdeebec", "fields": {"cp": "75012", "nom_site": "CENTRE SPORTIF LEON MOTTOT", "arc_adresse": "17 CITE MOYNET", "geo_point_2d": [48.8438656929, 2.3866294954], "nombre_de_borne_wifi": 1, "idpw": "PW0086", "geo_shape": {"type": "Point", "coordinates": [2.386629495395026, 48.8438656928756]}, "etat2": "Op\u00e9rationnel"}, "geometry": {"type": "Point", "coordinates": [2.3866294954, 48.8438656929]}, "record_timestamp": "2019-10-08T07:01:10.494000+00:00"}, {"datasetid": "sites-disposant-du-service-paris-wi-fi", "recordid": "46914feb0ec3ef5522f0d4cff01809b44aee7fc3", "fields": {"cp": "75011", "nom_site": "GYMNASE JAPY", "arc_adresse": "2 RUE JAPY", "geo_point_2d": [48.8558714122, 2.38245353583], "nombre_de_borne_wifi": 1, "idpw": "PW0096", "geo_shape": {"type": "Point", "coordinates": [2.382453535830383, 48.85587141220044]}, "etat2": "Op\u00e9rationnel"}, "geometry": {"type": "Point", "coordinates": [2.38245353583, 48.8558714122]}, "record_timestamp": "2019-10-08T07:01:10.494000+00:00"}, {"datasetid": "sites-disposant-du-service-paris-wi-fi", "recordid": "46107cb7f6ee378daecd6e0bc212e127254c690d", "fields": {"cp": "75019", "nom_site": "BIBLIOTHEQUE FESSART", "arc_adresse": "6 RUE FESSART", "geo_point_2d": [48.8762687831, 2.38818422808], "nombre_de_borne_wifi": 1, "idpw": "PW0005", "geo_shape": {"type": "Point", "coordinates": [2.388184228076371, 48.87626878314262]}, "etat2": "Op\u00e9rationnel"}, "geometry": {"type": "Point", "coordinates": [2.38818422808, 48.8762687831]}, "record_timestamp": "2019-10-08T07:01:10.494000+00:00"}, {"datasetid": "sites-disposant-du-service-paris-wi-fi", "recordid": "909834caab281b4bf814c3bbbb7518bee2e433ca", "fields": {"cp": "75015", "nom_site": "CENTRE SPORTIF SUZANNE LENGLEN - TRIBUNE COUR DE TENNIS", "arc_adresse": "2 RUE LOUIS ARMAND", "geo_point_2d": [48.8329646707, 2.27683278955], "nombre_de_borne_wifi": 1, "idpw": "PW0173", "geo_shape": {"type": "Point", "coordinates": [2.276832789549165, 48.83296467067889]}, "etat2": "Op\u00e9rationnel"}, "geometry": {"type": "Point", "coordinates": [2.27683278955, 48.8329646707]}, "record_timestamp": "2019-10-08T07:01:10.494000+00:00"}, {"datasetid": "sites-disposant-du-service-paris-wi-fi", "recordid": "38bca8ab289ff175292a8da588f354c696f331be", "fields": {"cp": "75004", "nom_site": "HOTEL DE VILLE SOUS SOL", "arc_adresse": "4 PLACE DE L'HOTEL DE VILLE", "geo_point_2d": [48.8567634421, 2.35264831302], "nombre_de_borne_wifi": 3, "idpw": "PW0122", "geo_shape": {"type": "Point", "coordinates": [2.352648313015423, 48.856763442143226]}, "etat2": "Op\u00e9rationnel"}, "geometry": {"type": "Point", "coordinates": [2.35264831302, 48.8567634421]}, "record_timestamp": "2019-10-08T07:01:10.494000+00:00"}, {"datasetid": "sites-disposant-du-service-paris-wi-fi", "recordid": "bcbdfd297637d5cef3c1ce4a3ff4516c3729b317", "fields": {"cp": "75016", "nom_site": "JARDIN D'ACCLIMATATION", "arc_adresse": "ALLEE DES ERABLES - BOIS DE BOULOGNE", "geo_point_2d": [48.8772644107, 2.26081219643], "nombre_de_borne_wifi": 8, "geo_shape": {"type": "Point", "coordinates": [2.260812196431798, 48.87726441066261]}, "etat2": "En \u00e9tude"}, "geometry": {"type": "Point", "coordinates": [2.26081219643, 48.8772644107]}, "record_timestamp": "2019-10-08T07:01:10.494000+00:00"}, {"datasetid": "sites-disposant-du-service-paris-wi-fi", "recordid": "3e037ef20938c0118a554dca2982e926642d0071", "fields": {"cp": "75011", "nom_site": "SQUARE LA PETITE ROQUETTE", "arc_adresse": "4 RUE SERVAN - SQUARE DE LA ROQUETTE", "geo_point_2d": [48.8591243675, 2.38418763308], "nombre_de_borne_wifi": 1, "idpw": "PW0068", "geo_shape": {"type": "Point", "coordinates": [2.384187633080559, 48.859124367471]}, "etat2": "Op\u00e9rationnel"}, "geometry": {"type": "Point", "coordinates": [2.38418763308, 48.8591243675]}, "record_timestamp": "2019-10-08T07:01:10.494000+00:00"}, {"datasetid": "sites-disposant-du-service-paris-wi-fi", "recordid": "f7d04c2303aae75fafaed632a727a786892cda8c", "fields": {"cp": "75013", "nom_site": "MAIRIE DU 13 EME", "arc_adresse": "1 PLACE D ITALIE", "geo_point_2d": [48.8323144109, 2.35531334924], "nombre_de_borne_wifi": 2, "idpw": "PW0013", "geo_shape": {"type": "Point", "coordinates": [2.355313349237969, 48.832314410863745]}, "etat2": "Op\u00e9rationnel"}, "geometry": {"type": "Point", "coordinates": [2.35531334924, 48.8323144109]}, "record_timestamp": "2019-10-08T07:01:10.494000+00:00"}, {"datasetid": "sites-disposant-du-service-paris-wi-fi", "recordid": "e060220ee11dbb5637cf3fcc0958fb0e33e70308", "fields": {"cp": "75003", "nom_site": "MAIRIE DU 3 EME", "arc_adresse": "2 RUE EUGENE SPULLER", "geo_point_2d": [48.8639920263, 2.36153196157], "nombre_de_borne_wifi": 2, "idpw": "PW0019", "geo_shape": {"type": "Point", "coordinates": [2.361531961565591, 48.863992026300004]}, "etat2": "Op\u00e9rationnel"}, "geometry": {"type": "Point", "coordinates": [2.36153196157, 48.8639920263]}, "record_timestamp": "2019-10-08T07:01:10.494000+00:00"}, {"datasetid": "sites-disposant-du-service-paris-wi-fi", "recordid": "c4c3493637e4c339d7e63f710c369356597a9f3e", "fields": {"cp": "75007", "nom_site": "PARC CHAMPS DE MARS - 1", "arc_adresse": "AVENUE CHARLES RISLER", "geo_point_2d": [48.8569794103, 2.29333906348], "nombre_de_borne_wifi": 1, "idpw": "PW0165", "geo_shape": {"type": "Point", "coordinates": [2.293339063475273, 48.856979410315645]}, "etat2": "Op\u00e9rationnel"}, "geometry": {"type": "Point", "coordinates": [2.29333906348, 48.8569794103]}, "record_timestamp": "2019-10-08T07:01:10.494000+00:00"}, {"datasetid": "sites-disposant-du-service-paris-wi-fi", "recordid": "497796a0efa8b76c0dcd962872636c001b09f5c1", "fields": {"cp": "75012", "nom_site": "PISCINE JEAN BOITEUX", "arc_adresse": "13 RUE HENARD", "geo_point_2d": [48.8421472127, 2.38939778901], "nombre_de_borne_wifi": 1, "idpw": "PW0106", "geo_shape": {"type": "Point", "coordinates": [2.389397789011499, 48.84214721269367]}, "etat2": "Op\u00e9rationnel"}, "geometry": {"type": "Point", "coordinates": [2.38939778901, 48.8421472127]}, "record_timestamp": "2019-10-08T07:01:10.494000+00:00"}, {"datasetid": "sites-disposant-du-service-paris-wi-fi", "recordid": "4697e05fa375cf94495d94149814bac55aed3858", "fields": {"cp": "75001", "nom_site": "BERGES RIVE DROITE - PONT NEUF", "arc_adresse": "BERGE DE SEINE RIVE DROITE - SORTIE TUNNEL TUILERIETUILERIES", "geo_point_2d": [48.8593733254, 2.33582235605], "nombre_de_borne_wifi": 1, "idpw": "PW0149", "geo_shape": {"type": "Point", "coordinates": [2.335822356054448, 48.85937332543368]}, "etat2": "Op\u00e9rationnel"}, "geometry": {"type": "Point", "coordinates": [2.33582235605, 48.8593733254]}, "record_timestamp": "2019-10-08T07:01:10.494000+00:00"}, {"datasetid": "sites-disposant-du-service-paris-wi-fi", "recordid": "b2734434262c836a577bb99ee5ae366eb10e1a5a", "fields": {"cp": "75004", "nom_site": "BERGES RIVE DROITE - PONT NOTRE DAME", "arc_adresse": "BERGE DE SEINE RIVE DROITE -  QUAI DE GESVRES 2", "geo_point_2d": [48.8566875709, 2.34892300033], "nombre_de_borne_wifi": 1, "idpw": "PW0181", "geo_shape": {"type": "Point", "coordinates": [2.3489230003257022, 48.85668757090018]}, "etat2": "Op\u00e9rationnel"}, "geometry": {"type": "Point", "coordinates": [2.34892300033, 48.8566875709]}, "record_timestamp": "2019-10-08T07:01:10.494000+00:00"}, {"datasetid": "sites-disposant-du-service-paris-wi-fi", "recordid": "03883743a4d442888f80640254bbe4a1d8ee1487", "fields": {"cp": "75014", "nom_site": "SQUARE ASPIRANT DUNAND", "arc_adresse": "RUE MOUTON DUVERNET", "geo_point_2d": [48.8321552307, 2.32688453686], "nombre_de_borne_wifi": 1, "idpw": "PW0063", "geo_shape": {"type": "Point", "coordinates": [2.326884536863806, 48.83215523073599]}, "etat2": "Op\u00e9rationnel"}, "geometry": {"type": "Point", "coordinates": [2.32688453686, 48.8321552307]}, "record_timestamp": "2019-10-08T07:01:10.494000+00:00"}, {"datasetid": "sites-disposant-du-service-paris-wi-fi", "recordid": "059e2e7fd532b766c79d1b591d8412f75cf65b1c", "fields": {"cp": "75013", "nom_site": "SQUARE GEORGES DUHAMEL", "arc_adresse": "RUE JEAN ANOUILH", "geo_point_2d": [48.8319158284, 2.37761188927], "nombre_de_borne_wifi": 1, "idpw": "PW0171", "geo_shape": {"type": "Point", "coordinates": [2.377611889269577, 48.831915828448025]}, "etat2": "Op\u00e9rationnel"}, "geometry": {"type": "Point", "coordinates": [2.37761188927, 48.8319158284]}, "record_timestamp": "2019-10-08T07:01:10.494000+00:00"}, {"datasetid": "sites-disposant-du-service-paris-wi-fi", "recordid": "8dd696dbb5038bcc84ee59e2921602837add6d88", "fields": {"cp": "75013", "nom_site": "CENTRE SPORTIF CHARLES MOUREU", "arc_adresse": "17 AVENUE EDISON", "geo_point_2d": [48.8278012364, 2.36413466138], "nombre_de_borne_wifi": 1, "idpw": "PW0074", "geo_shape": {"type": "Point", "coordinates": [2.36413466137506, 48.82780123635453]}, "etat2": "Op\u00e9rationnel"}, "geometry": {"type": "Point", "coordinates": [2.36413466138, 48.8278012364]}, "record_timestamp": "2019-10-08T07:01:10.494000+00:00"}, {"datasetid": "sites-disposant-du-service-paris-wi-fi", "recordid": "b5eb40bf85366ee16aa36e1aabe2169dd2e36c05", "fields": {"cp": "75018", "nom_site": "BUTTE MONTMARTRE", "arc_adresse": "6 PLACE SAINT-PIERRE", "geo_point_2d": [48.8844827328, 2.34387627415], "nombre_de_borne_wifi": 1, "geo_shape": {"type": "Point", "coordinates": [2.34387627415176, 48.88448273278111]}, "etat2": "En \u00e9tude"}, "geometry": {"type": "Point", "coordinates": [2.34387627415, 48.8844827328]}, "record_timestamp": "2019-10-08T07:01:10.494000+00:00"}, {"datasetid": "sites-disposant-du-service-paris-wi-fi", "recordid": "6c56b6435850e016810910723362794b828bdfcc", "fields": {"cp": "75010", "nom_site": "SQUARE FREDERIC LEMAITRE", "arc_adresse": "35 QUAI DE JEMMAPES", "geo_point_2d": [48.8788386316, 2.36711233025], "nombre_de_borne_wifi": 1, "idpw": "PW0197", "geo_shape": {"type": "Point", "coordinates": [2.367112330251715, 48.87883863164688]}, "etat2": "Op\u00e9rationnel"}, "geometry": {"type": "Point", "coordinates": [2.36711233025, 48.8788386316]}, "record_timestamp": "2019-10-08T07:01:10.494000+00:00"}, {"datasetid": "sites-disposant-du-service-paris-wi-fi", "recordid": "629d77f8e88a4ecd2cd56e04c816d108df857e5e", "fields": {"cp": "75011", "nom_site": "SQUARE MAURICE GARDETTE", "arc_adresse": "2 RUE DU GENERAL BLAISE RUE LACHARRIERE", "geo_point_2d": [48.8610851934, 2.37907251705], "nombre_de_borne_wifi": 1, "idpw": "PW0205", "geo_shape": {"type": "Point", "coordinates": [2.379072517053181, 48.86108519335693]}, "etat2": "Op\u00e9rationnel"}, "geometry": {"type": "Point", "coordinates": [2.37907251705, 48.8610851934]}, "record_timestamp": "2019-10-08T07:01:10.494000+00:00"}, {"datasetid": "sites-disposant-du-service-paris-wi-fi", "recordid": "2045e15fb6463747fb5d9f0791b5533117688773", "fields": {"cp": "75001", "nom_site": "BIBLIOTHEQUE DU CINEMA FRANCOIS TRUFFAUT", "arc_adresse": "14 RUE DES PROUVAIRES", "geo_point_2d": [48.8614889106, 2.34415410951], "nombre_de_borne_wifi": 1, "idpw": "PW0112", "geo_shape": {"type": "Point", "coordinates": [2.344154109508663, 48.86148891058232]}, "etat2": "Op\u00e9rationnel"}, "geometry": {"type": "Point", "coordinates": [2.34415410951, 48.8614889106]}, "record_timestamp": "2019-10-08T07:01:10.494000+00:00"}, {"datasetid": "sites-disposant-du-service-paris-wi-fi", "recordid": "b62b847278ebc85346aeafd32589f845f624a26a", "fields": {"cp": "75020", "nom_site": "BIBLIOTHEQUE NAGUIB MAHFOUZ", "arc_adresse": "66 RUE DES COURONNES", "geo_point_2d": [48.870162555, 2.38521982606], "nombre_de_borne_wifi": 1, "idpw": "PW0048", "geo_shape": {"type": "Point", "coordinates": [2.385219826057544, 48.87016255501904]}, "etat2": "Op\u00e9rationnel"}, "geometry": {"type": "Point", "coordinates": [2.38521982606, 48.870162555]}, "record_timestamp": "2019-10-08T07:01:10.494000+00:00"}, {"datasetid": "sites-disposant-du-service-paris-wi-fi", "recordid": "14c99b8a3f5391a559bc3211e8fcdf9b6f2b150c", "fields": {"cp": "75013", "nom_site": "SQUARE DE LA RAFFINERIE SAY", "arc_adresse": "147 BOULEVARD VINCENT AURIOL", "geo_point_2d": [48.8325693774, 2.36204340104], "nombre_de_borne_wifi": 1, "idpw": "PW0174", "geo_shape": {"type": "Point", "coordinates": [2.3620434010445353, 48.83256937742216]}, "etat2": "Op\u00e9rationnel"}, "geometry": {"type": "Point", "coordinates": [2.36204340104, 48.8325693774]}, "record_timestamp": "2019-10-08T07:01:10.494000+00:00"}, {"datasetid": "sites-disposant-du-service-paris-wi-fi", "recordid": "1d6419c1054b4139c00ebd4f735d610d0148699d", "fields": {"cp": "75004", "nom_site": "LES BLANCS MANTEAUX", "arc_adresse": "48 RUE VIELLE DU TEMPLE", "geo_point_2d": [48.8582613252, 2.35839235718], "nombre_de_borne_wifi": 2, "idpw": "PW0121", "geo_shape": {"type": "Point", "coordinates": [2.358392357177399, 48.85826132515105]}, "etat2": "Op\u00e9rationnel"}, "geometry": {"type": "Point", "coordinates": [2.35839235718, 48.8582613252]}, "record_timestamp": "2019-10-08T07:01:10.494000+00:00"}, {"datasetid": "sites-disposant-du-service-paris-wi-fi", "recordid": "c98777820fa23289958047c90dc80e700dc77015", "fields": {"cp": "75004", "nom_site": "HOTEL DE VILLE  PARVIS  9", "arc_adresse": "9 PLACE DE L HOTEL DE VILLE", "geo_point_2d": [48.8572732825, 2.35127761215], "nombre_de_borne_wifi": 1, "idpw": "PW0119", "geo_shape": {"type": "Point", "coordinates": [2.351277612149235, 48.85727328251876]}, "etat2": "Op\u00e9rationnel"}, "geometry": {"type": "Point", "coordinates": [2.35127761215, 48.8572732825]}, "record_timestamp": "2019-10-08T07:01:10.494000+00:00"}, {"datasetid": "sites-disposant-du-service-paris-wi-fi", "recordid": "97bcc7a59338faf3093d042dbb8e1236f59ceb28", "fields": {"cp": "75013", "nom_site": "SQUARE HENRI CADIOU", "arc_adresse": "69 BOULEVARD ARAGO", "geo_point_2d": [48.8346490481, 2.34222254283], "nombre_de_borne_wifi": 2, "idpw": "PW0172", "geo_shape": {"type": "Point", "coordinates": [2.342222542830243, 48.834649048099365]}, "etat2": "Op\u00e9rationnel"}, "geometry": {"type": "Point", "coordinates": [2.34222254283, 48.8346490481]}, "record_timestamp": "2019-10-08T07:01:10.494000+00:00"}, {"datasetid": "sites-disposant-du-service-paris-wi-fi", "recordid": "b5048436a03220839d783f5a9f1f61ec0f7c7a83", "fields": {"cp": "75004", "nom_site": "MAIRIE DU 4 EME", "arc_adresse": "2 PLACE BAUDOYER", "geo_point_2d": [48.8562716079, 2.35575690111], "nombre_de_borne_wifi": 2, "idpw": "PW0132", "geo_shape": {"type": "Point", "coordinates": [2.355756901105178, 48.856271607867846]}, "etat2": "Op\u00e9rationnel"}, "geometry": {"type": "Point", "coordinates": [2.35575690111, 48.8562716079]}, "record_timestamp": "2019-10-08T07:01:10.494000+00:00"}, {"datasetid": "sites-disposant-du-service-paris-wi-fi", "recordid": "b29a6b0c7535664637caef2ced2927c4888dbfb7", "fields": {"cp": "75013", "nom_site": "MAISON DE LA VIE ASSOCIATIVE ET CITOYENNE  13", "arc_adresse": "11 RUE CAILLAUX", "geo_point_2d": [48.8226333452, 2.36131811251], "nombre_de_borne_wifi": 1, "idpw": "PW0039", "geo_shape": {"type": "Point", "coordinates": [2.361318112511234, 48.82263334522024]}, "etat2": "Op\u00e9rationnel"}, "geometry": {"type": "Point", "coordinates": [2.36131811251, 48.8226333452]}, "record_timestamp": "2019-10-08T07:01:10.494000+00:00"}, {"datasetid": "sites-disposant-du-service-paris-wi-fi", "recordid": "13b0ed173f33e038680ae37cbcb3e917fbd3894d", "fields": {"cp": "75013", "nom_site": "PARC DE CHOISY", "arc_adresse": "160 AVENUE DE CHOISY", "geo_point_2d": [48.827750994, 2.35959561395], "nombre_de_borne_wifi": 2, "idpw": "PW0062", "geo_shape": {"type": "Point", "coordinates": [2.359595613946219, 48.82775099396245]}, "etat2": "Op\u00e9rationnel"}, "geometry": {"type": "Point", "coordinates": [2.35959561395, 48.827750994]}, "record_timestamp": "2019-10-08T07:01:10.494000+00:00"}, {"datasetid": "sites-disposant-du-service-paris-wi-fi", "recordid": "cb039d41d1321889316ddf38a2f5ecc8101f4636", "fields": {"cp": "75013", "nom_site": "PROMENADE PIED DE LA BNF", "arc_adresse": "QUAI FRANCOIS MAURIAC", "geo_point_2d": [48.8332986524, 2.37836823029], "nombre_de_borne_wifi": 1, "geo_shape": {"type": "Point", "coordinates": [2.378368230286152, 48.83329865241758]}, "etat2": "En \u00e9tude"}, "geometry": {"type": "Point", "coordinates": [2.37836823029, 48.8332986524]}, "record_timestamp": "2019-10-08T07:01:10.494000+00:00"}, {"datasetid": "sites-disposant-du-service-paris-wi-fi", "recordid": "f9f6196f1111f27e77d4d56065f0dd1d0b05bc04", "fields": {"cp": "75010", "nom_site": "SQUARE DES RECOLLETS", "arc_adresse": "88 QUAI DE VALMY", "geo_point_2d": [48.8732040203, 2.36361161798], "nombre_de_borne_wifi": 1, "geo_shape": {"type": "Point", "coordinates": [2.363611617977897, 48.87320402026159]}, "etat2": "En \u00e9tude"}, "geometry": {"type": "Point", "coordinates": [2.36361161798, 48.8732040203]}, "record_timestamp": "2019-10-08T07:01:10.494000+00:00"}, {"datasetid": "sites-disposant-du-service-paris-wi-fi", "recordid": "dae7f9ce48dbb48d7574f795c8e9fdec1da3e58f", "fields": {"cp": "75017", "nom_site": "BIBLIOTHEQUE COLETTE VIVIER", "arc_adresse": "6 RUE FOURNEYRON", "geo_point_2d": [48.889783335, 2.31964337344], "nombre_de_borne_wifi": 1, "idpw": "PW0003", "geo_shape": {"type": "Point", "coordinates": [2.31964337343766, 48.88978333501903]}, "etat2": "Op\u00e9rationnel"}, "geometry": {"type": "Point", "coordinates": [2.31964337344, 48.889783335]}, "record_timestamp": "2019-10-08T07:01:10.494000+00:00"}, {"datasetid": "sites-disposant-du-service-paris-wi-fi", "recordid": "c601f7b1d1fa800ed559d49349f305864903f275", "fields": {"cp": "75020", "nom_site": "BIBLIOTHEQUE SORBIER", "arc_adresse": "17 RUE SORBIER", "geo_point_2d": [48.8659615824, 2.39285197457], "nombre_de_borne_wifi": 2, "idpw": "PW0129", "geo_shape": {"type": "Point", "coordinates": [2.392851974569113, 48.86596158237579]}, "etat2": "Op\u00e9rationnel"}, "geometry": {"type": "Point", "coordinates": [2.39285197457, 48.8659615824]}, "record_timestamp": "2019-10-08T07:01:10.494000+00:00"}, {"datasetid": "sites-disposant-du-service-paris-wi-fi", "recordid": "ec983d46e885bd6e7027bdfa83a5bcc58c39b2c2", "fields": {"cp": "75018", "nom_site": "JARDIN D EOLE - 1", "arc_adresse": "18B RUE DU DEPARTEMENT", "geo_point_2d": [48.8864505694, 2.36547579719], "nombre_de_borne_wifi": 2, "idpw": "PW0170", "geo_shape": {"type": "Point", "coordinates": [2.36547579719454, 48.88645056943661]}, "etat2": "Op\u00e9rationnel"}, "geometry": {"type": "Point", "coordinates": [2.36547579719, 48.8864505694]}, "record_timestamp": "2019-10-08T07:01:10.494000+00:00"}, {"datasetid": "sites-disposant-du-service-paris-wi-fi", "recordid": "5498e8c47476e600e1185d35b8ca02f1ab12f9b6", "fields": {"cp": "75012", "nom_site": "PARC DE BERCY (ORANGERIE)", "arc_adresse": "1 COUR CHAMONARD", "geo_point_2d": [48.836091766, 2.38325225953], "nombre_de_borne_wifi": 2, "idpw": "PW0058-2", "geo_shape": {"type": "Point", "coordinates": [2.383252259533802, 48.836091766026286]}, "etat2": "Op\u00e9rationnel"}, "geometry": {"type": "Point", "coordinates": [2.38325225953, 48.836091766]}, "record_timestamp": "2019-10-08T07:01:10.494000+00:00"}, {"datasetid": "sites-disposant-du-service-paris-wi-fi", "recordid": "da3ac4699d4a5104764839a3431a426b547f1e8d", "fields": {"cp": "75014", "nom_site": "SQUARE FERDINAND BRUNOT", "arc_adresse": "PLACE FERDINAND BRUNOT", "geo_point_2d": [48.832851161, 2.32676722614], "nombre_de_borne_wifi": 1, "idpw": "PW0065", "geo_shape": {"type": "Point", "coordinates": [2.326767226137216, 48.83285116095279]}, "etat2": "Op\u00e9rationnel"}, "geometry": {"type": "Point", "coordinates": [2.32676722614, 48.832851161]}, "record_timestamp": "2019-10-08T07:01:10.494000+00:00"}, {"datasetid": "sites-disposant-du-service-paris-wi-fi", "recordid": "376766dab5c5e41e2b5930e0a5115313f5210587", "fields": {"cp": "75015", "nom_site": "BIBLIOTHEQUE GUTENBERG", "arc_adresse": "8 RUE DE LA MONTAGNE D AULAS", "geo_point_2d": [48.8402076064, 2.27870642421], "nombre_de_borne_wifi": 1, "idpw": "PW0145", "geo_shape": {"type": "Point", "coordinates": [2.278706424214254, 48.84020760641956]}, "etat2": "Op\u00e9rationnel"}, "geometry": {"type": "Point", "coordinates": [2.27870642421, 48.8402076064]}, "record_timestamp": "2019-10-08T07:01:10.494000+00:00"}, {"datasetid": "sites-disposant-du-service-paris-wi-fi", "recordid": "d1c28367a22977dd0091915048fd6fc09da74d42", "fields": {"cp": "75013", "nom_site": "PROMENADE QUAI FRANCOIS MAURIAC", "arc_adresse": "QUAI FRANCOIS MAURIAC", "geo_point_2d": [48.8327478739, 2.37989455046], "nombre_de_borne_wifi": 1, "geo_shape": {"type": "Point", "coordinates": [2.379894550461982, 48.832747873890305]}, "etat2": "En \u00e9tude"}, "geometry": {"type": "Point", "coordinates": [2.37989455046, 48.8327478739]}, "record_timestamp": "2019-10-08T07:01:10.494000+00:00"}, {"datasetid": "sites-disposant-du-service-paris-wi-fi", "recordid": "3ce00faa6ff1470c1f1adfcef2386cf9f206debd", "fields": {"cp": "75007", "nom_site": "BIBLIOTHEQUE AMELIE", "arc_adresse": "164 RUE DE GRENELLE", "geo_point_2d": [48.8580688977, 2.30898988281], "nombre_de_borne_wifi": 1, "idpw": "PW0059", "geo_shape": {"type": "Point", "coordinates": [2.308989882814166, 48.85806889772535]}, "etat2": "Op\u00e9rationnel"}, "geometry": {"type": "Point", "coordinates": [2.30898988281, 48.8580688977]}, "record_timestamp": "2019-10-08T07:01:10.494000+00:00"}, {"datasetid": "sites-disposant-du-service-paris-wi-fi", "recordid": "7359c634b2afa4af034a4103dbdc98a0cb646061", "fields": {"cp": "75005", "nom_site": "BIBLIOTHEQUE RAINER MARIA RILKE", "arc_adresse": "88 T BOULEVARD DE PORT-ROYAL", "geo_point_2d": [48.8393069888, 2.33878167349], "nombre_de_borne_wifi": 2, "idpw": "PW0115", "geo_shape": {"type": "Point", "coordinates": [2.338781673488587, 48.83930698880458]}, "etat2": "Op\u00e9rationnel"}, "geometry": {"type": "Point", "coordinates": [2.33878167349, 48.8393069888]}, "record_timestamp": "2019-10-08T07:01:10.494000+00:00"}, {"datasetid": "sites-disposant-du-service-paris-wi-fi", "recordid": "e7c5ba08e2b4147821ffd90121148f64a2b18179", "fields": {"cp": "75010", "nom_site": "BIBLIOTHEQUE FRANCOIS VILLON", "arc_adresse": "81 BOULEVARD DE LA VILLETTE", "geo_point_2d": [48.8772054342, 2.37079691969], "nombre_de_borne_wifi": 2, "idpw": "PW0116", "geo_shape": {"type": "Point", "coordinates": [2.37079691969116, 48.87720543415444]}, "etat2": "Op\u00e9rationnel"}, "geometry": {"type": "Point", "coordinates": [2.37079691969, 48.8772054342]}, "record_timestamp": "2019-10-08T07:01:10.494000+00:00"}, {"datasetid": "sites-disposant-du-service-paris-wi-fi", "recordid": "7bd75fc5fee76851194bfc072526f6a44918ffa2", "fields": {"cp": "75009", "nom_site": "BIBLIOTHEQUE DROUOT", "arc_adresse": "11 RUE DROUOT", "geo_point_2d": [48.8733902739, 2.34045205645], "nombre_de_borne_wifi": 1, "idpw": "PW0060", "geo_shape": {"type": "Point", "coordinates": [2.34045205644628, 48.87339027391682]}, "etat2": "Op\u00e9rationnel"}, "geometry": {"type": "Point", "coordinates": [2.34045205645, 48.8733902739]}, "record_timestamp": "2019-10-08T07:01:10.494000+00:00"}, {"datasetid": "sites-disposant-du-service-paris-wi-fi", "recordid": "73d7592d29a38bda64a5ce178465ad2584d450b5", "fields": {"cp": "75013", "nom_site": "CENTRE SPORTIF GEORGES CARPENTIER", "arc_adresse": "81 BOULEVARD MASSENA", "geo_point_2d": [48.8202371888, 2.36812515131], "nombre_de_borne_wifi": 3, "idpw": "PW0103", "geo_shape": {"type": "Point", "coordinates": [2.368125151306786, 48.82023718884467]}, "etat2": "Op\u00e9rationnel"}, "geometry": {"type": "Point", "coordinates": [2.36812515131, 48.8202371888]}, "record_timestamp": "2019-10-08T07:01:10.494000+00:00"}, {"datasetid": "sites-disposant-du-service-paris-wi-fi", "recordid": "538c6a75480b58063a614ca69112956f20ecc66f", "fields": {"cp": "75005", "nom_site": "SQUARE THEODORE MONOD", "arc_adresse": "8 RUE SCIPION", "geo_point_2d": [48.8383992161, 2.35377753667], "nombre_de_borne_wifi": 1, "idpw": "PW0155", "geo_shape": {"type": "Point", "coordinates": [2.353777536666722, 48.83839921606968]}, "etat2": "Op\u00e9rationnel"}, "geometry": {"type": "Point", "coordinates": [2.35377753667, 48.8383992161]}, "record_timestamp": "2019-10-08T07:01:10.494000+00:00"}, {"datasetid": "sites-disposant-du-service-paris-wi-fi", "recordid": "612da832cfb2feb7d7559790ca48e1976150c4a7", "fields": {"cp": "75016", "nom_site": "SERRES D AUTEUIL", "arc_adresse": "3 AVENUE DE LA PORTE D AUTEUIL", "geo_point_2d": [48.8477665615, 2.25227552793], "nombre_de_borne_wifi": 1, "geo_shape": {"type": "Point", "coordinates": [2.252275527930085, 48.84776656145009]}, "etat2": "En \u00e9tude"}, "geometry": {"type": "Point", "coordinates": [2.25227552793, 48.8477665615]}, "record_timestamp": "2019-10-08T07:01:10.494000+00:00"}, {"datasetid": "sites-disposant-du-service-paris-wi-fi", "recordid": "b7ad2293f5a36a3bf5c96a209f42889570ec0543", "fields": {"cp": "75008", "nom_site": "BIBLIOTHEQUE EUROPE", "arc_adresse": "3 RUE DE LISBONNE", "geo_point_2d": [48.877751384, 2.31748647872], "nombre_de_borne_wifi": 2, "idpw": "PW0124", "geo_shape": {"type": "Point", "coordinates": [2.317486478723445, 48.87775138401691]}, "etat2": "Op\u00e9rationnel"}, "geometry": {"type": "Point", "coordinates": [2.31748647872, 48.877751384]}, "record_timestamp": "2019-10-08T07:01:10.494000+00:00"}, {"datasetid": "sites-disposant-du-service-paris-wi-fi", "recordid": "ab2223d4fd2fc868dfb52b52781939e713403480", "fields": {"cp": "75012", "nom_site": "PARC DE BERCY (TERRASSE BERCY)", "arc_adresse": "1 COUR CHAMONARD", "geo_point_2d": [48.8368107135, 2.3823502437], "nombre_de_borne_wifi": 2, "idpw": "PW0058-3", "geo_shape": {"type": "Point", "coordinates": [2.382350243699965, 48.83681071348854]}, "etat2": "Op\u00e9rationnel"}, "geometry": {"type": "Point", "coordinates": [2.3823502437, 48.8368107135]}, "record_timestamp": "2019-10-08T07:01:10.494000+00:00"}, {"datasetid": "sites-disposant-du-service-paris-wi-fi", "recordid": "49613aa66ddeb775bedcc94606628e53d3233e58", "fields": {"cp": "75013", "nom_site": "SQUARE GUSTAVE MESUREUR", "arc_adresse": "105 RUE JEANNE D ARC", "geo_point_2d": [48.8338461546, 2.3627918953], "nombre_de_borne_wifi": 1, "idpw": "PW0178", "geo_shape": {"type": "Point", "coordinates": [2.362791895302856, 48.83384615455623]}, "etat2": "Op\u00e9rationnel"}, "geometry": {"type": "Point", "coordinates": [2.3627918953, 48.8338461546]}, "record_timestamp": "2019-10-08T07:01:10.494000+00:00"}, {"datasetid": "sites-disposant-du-service-paris-wi-fi", "recordid": "87e13316f659b57711b72413d6fef5317d4eccb1", "fields": {"cp": "75004", "nom_site": "HOTEL DE VILLE RDC", "arc_adresse": "4 PLACE DE L'HOTEL DE VILLE", "geo_point_2d": [48.856389683, 2.35238826701], "nombre_de_borne_wifi": 2, "idpw": "PW0122-1", "geo_shape": {"type": "Point", "coordinates": [2.352388267005781, 48.856389682987924]}, "etat2": "Op\u00e9rationnel"}, "geometry": {"type": "Point", "coordinates": [2.35238826701, 48.856389683]}, "record_timestamp": "2019-10-08T07:01:10.494000+00:00"}, {"datasetid": "sites-disposant-du-service-paris-wi-fi", "recordid": "ca089006a6003a3effd64eeb7f725274dd955994", "fields": {"cp": "75004", "nom_site": "HOTEL DE VILLE 2EME", "arc_adresse": "4 PLACE DE L HOTEL DE VILLE", "geo_point_2d": [48.8560260905, 2.35268578589], "nombre_de_borne_wifi": 6, "idpw": "PW0122-3", "geo_shape": {"type": "Point", "coordinates": [2.352685785891045, 48.856026090464944]}, "etat2": "Op\u00e9rationnel"}, "geometry": {"type": "Point", "coordinates": [2.35268578589, 48.8560260905]}, "record_timestamp": "2019-10-08T07:01:10.494000+00:00"}, {"datasetid": "sites-disposant-du-service-paris-wi-fi", "recordid": "fd1141789d5bc7530df5f40a9052cc40cc5da37a", "fields": {"cp": "75019", "nom_site": "MAIRIE DU 19 EME", "arc_adresse": "5 PLACE ARMAND CARREL", "geo_point_2d": [48.8827945783, 2.38191797413], "nombre_de_borne_wifi": 1, "idpw": "PW0017", "geo_shape": {"type": "Point", "coordinates": [2.381917974125571, 48.88279457828255]}, "etat2": "Op\u00e9rationnel"}, "geometry": {"type": "Point", "coordinates": [2.38191797413, 48.8827945783]}, "record_timestamp": "2019-10-08T07:01:10.494000+00:00"}, {"datasetid": "sites-disposant-du-service-paris-wi-fi", "recordid": "100a95bb264dd4c3eab5ecde8bd6a5d49681aeba", "fields": {"cp": "75009", "nom_site": "SQUARE MONTHOLON", "arc_adresse": "RUE LA FAYETTE", "geo_point_2d": [48.8769016573, 2.34640500313], "nombre_de_borne_wifi": 1, "idpw": "PW0186", "geo_shape": {"type": "Point", "coordinates": [2.346405003129445, 48.87690165728509]}, "etat2": "Op\u00e9rationnel"}, "geometry": {"type": "Point", "coordinates": [2.34640500313, 48.8769016573]}, "record_timestamp": "2019-10-08T07:01:10.494000+00:00"}, {"datasetid": "sites-disposant-du-service-paris-wi-fi", "recordid": "fbd5dd17a10413f34281eb745597c60fcffe2479", "fields": {"cp": "75009", "nom_site": "SQUARE TRINITE D ESTIENNE D ORVES", "arc_adresse": "1 PLACE D ESTIENNES D ORVES", "geo_point_2d": [48.8765956695, 2.33179827521], "nombre_de_borne_wifi": 1, "idpw": "PW0176", "geo_shape": {"type": "Point", "coordinates": [2.331798275213253, 48.87659566954103]}, "etat2": "Op\u00e9rationnel"}, "geometry": {"type": "Point", "coordinates": [2.33179827521, 48.8765956695]}, "record_timestamp": "2019-10-08T07:01:10.494000+00:00"}, {"datasetid": "sites-disposant-du-service-paris-wi-fi", "recordid": "87ebbe9e1f1554392344735155ce50949c57054d", "fields": {"cp": "75016", "nom_site": "STADE PIERRE DE COUBERTIN", "arc_adresse": "82 AVENUE GEORGES LAFONT", "geo_point_2d": [48.8354989458, 2.25576069335], "nombre_de_borne_wifi": 4, "idpw": "PW0108", "geo_shape": {"type": "Point", "coordinates": [2.255760693346942, 48.83549894578004]}, "etat2": "Op\u00e9rationnel"}, "geometry": {"type": "Point", "coordinates": [2.25576069335, 48.8354989458]}, "record_timestamp": "2019-10-08T07:01:10.494000+00:00"}, {"datasetid": "sites-disposant-du-service-paris-wi-fi", "recordid": "cef2c6fe0112911ce0037b8652714b98d5acbbe3", "fields": {"cp": "75014", "nom_site": "BIBLIOTHEQUE AIME CESAIRE", "arc_adresse": "5 RUE DE RIDDER", "geo_point_2d": [48.8312312482, 2.31166233211], "nombre_de_borne_wifi": 2, "idpw": "PW0053", "geo_shape": {"type": "Point", "coordinates": [2.311662332111938, 48.83123124818045]}, "etat2": "Op\u00e9rationnel"}, "geometry": {"type": "Point", "coordinates": [2.31166233211, 48.8312312482]}, "record_timestamp": "2019-10-08T07:01:10.494000+00:00"}, {"datasetid": "sites-disposant-du-service-paris-wi-fi", "recordid": "0129bcc75b6cd1b383a6213e96b69eeb8a02130f", "fields": {"cp": "75015", "nom_site": "CENTRE SPORTIF CHARLES RIGOULOT", "arc_adresse": "18 AVENUE DE LA PORTE BRANCION", "geo_point_2d": [48.8266335927, 2.30041746551], "nombre_de_borne_wifi": 1, "idpw": "PW0075", "geo_shape": {"type": "Point", "coordinates": [2.300417465508701, 48.826633592748095]}, "etat2": "Op\u00e9rationnel"}, "geometry": {"type": "Point", "coordinates": [2.30041746551, 48.8266335927]}, "record_timestamp": "2019-10-08T07:01:10.494000+00:00"}, {"datasetid": "sites-disposant-du-service-paris-wi-fi", "recordid": "aff282416e275e0bb93cb3951857689c6f3f33c6", "fields": {"cp": "75019", "nom_site": "ARCHIVES DE PARIS", "arc_adresse": "18 BOULEVARD SERURIER", "geo_point_2d": [48.8780382168, 2.40580812486], "nombre_de_borne_wifi": 1, "idpw": "PW0136", "geo_shape": {"type": "Point", "coordinates": [2.4058081248559793, 48.878038216825445]}, "etat2": "Op\u00e9rationnel"}, "geometry": {"type": "Point", "coordinates": [2.40580812486, 48.8780382168]}, "record_timestamp": "2019-10-08T07:01:10.494000+00:00"}, {"datasetid": "sites-disposant-du-service-paris-wi-fi", "recordid": "d76655edb9fd6f3031eda602c670882e2392555e", "fields": {"cp": "75007", "nom_site": "BIBLIOTHEQUE SAINT SIMON", "arc_adresse": "116 RUE DE GRENELLE", "geo_point_2d": [48.8568664767, 2.32004369744], "nombre_de_borne_wifi": 1, "idpw": "PW0022-1", "geo_shape": {"type": "Point", "coordinates": [2.320043697435677, 48.85686647665856]}, "etat2": "Op\u00e9rationnel"}, "geometry": {"type": "Point", "coordinates": [2.32004369744, 48.8568664767]}, "record_timestamp": "2019-10-08T07:01:10.494000+00:00"}, {"datasetid": "sites-disposant-du-service-paris-wi-fi", "recordid": "af0e0eb9fd9045096b3ce22c3018bdb764624123", "fields": {"cp": "75006", "nom_site": "MAISON DES INITIATIVES ETUDIANTES LABO6", "arc_adresse": "76B RUE DE RENNES", "geo_point_2d": [48.8512426095, 2.33044362302], "nombre_de_borne_wifi": 4, "idpw": "PW0146", "geo_shape": {"type": "Point", "coordinates": [2.330443623016365, 48.851242609525265]}, "etat2": "Op\u00e9rationnel"}, "geometry": {"type": "Point", "coordinates": [2.33044362302, 48.8512426095]}, "record_timestamp": "2019-10-08T07:01:10.494000+00:00"}, {"datasetid": "sites-disposant-du-service-paris-wi-fi", "recordid": "70c7b35f709c8751f27877d61aa5391cf7c4b745", "fields": {"cp": "75014", "nom_site": "MAISON DE LA VIE ASSOCIATIVE ET CITOYENNE  14", "arc_adresse": "22 RUE DEPARCIEUX", "geo_point_2d": [48.83559168, 2.3258213932], "nombre_de_borne_wifi": 2, "idpw": "PW0040", "geo_shape": {"type": "Point", "coordinates": [2.325821393195147, 48.83559167995911]}, "etat2": "Op\u00e9rationnel"}, "geometry": {"type": "Point", "coordinates": [2.3258213932, 48.83559168]}, "record_timestamp": "2019-10-08T07:01:10.494000+00:00"}, {"datasetid": "sites-disposant-du-service-paris-wi-fi", "recordid": "db3741bc0294b1a06eb1adad35fdf21e8f5f0953", "fields": {"cp": "75004", "nom_site": "HOTEL DE VILLE PARVIS SEINE", "arc_adresse": "4 PLACE DE L'HOTEL DE VILLE", "geo_point_2d": [48.8563193139, 2.35175507673], "nombre_de_borne_wifi": 1, "idpw": "PW0123", "geo_shape": {"type": "Point", "coordinates": [2.35175507673093, 48.85631931393781]}, "etat2": "Op\u00e9rationnel"}, "geometry": {"type": "Point", "coordinates": [2.35175507673, 48.8563193139]}, "record_timestamp": "2019-10-08T07:01:10.494000+00:00"}, {"datasetid": "sites-disposant-du-service-paris-wi-fi", "recordid": "e4439033f1e18cb71c41f1f3f9889b5acc64e1f2", "fields": {"cp": "75006", "nom_site": "MAIRIE DU 6 EME", "arc_adresse": "78 RUE BONAPARTE", "geo_point_2d": [48.8505365269, 2.33261137019], "nombre_de_borne_wifi": 1, "idpw": "PW0128", "geo_shape": {"type": "Point", "coordinates": [2.33261137019337, 48.850536526897756]}, "etat2": "Op\u00e9rationnel"}, "geometry": {"type": "Point", "coordinates": [2.33261137019, 48.8505365269]}, "record_timestamp": "2019-10-08T07:01:10.494000+00:00"}, {"datasetid": "sites-disposant-du-service-paris-wi-fi", "recordid": "ea46212be04d268aff6f38e0aa355f8069812da6", "fields": {"cp": "75008", "nom_site": "MAISON DE LA VIE ASSOCIATIVE ET CITOYENNE  8", "arc_adresse": "28 RUE LAURE DIEBOLD", "geo_point_2d": [48.8760292839, 2.30478482557], "nombre_de_borne_wifi": 2, "idpw": "PW0047", "geo_shape": {"type": "Point", "coordinates": [2.304784825574433, 48.87602928391506]}, "etat2": "Op\u00e9rationnel"}, "geometry": {"type": "Point", "coordinates": [2.30478482557, 48.8760292839]}, "record_timestamp": "2019-10-08T07:01:10.494000+00:00"}, {"datasetid": "sites-disposant-du-service-paris-wi-fi", "recordid": "2fdd000854f0a6aae480d9418c9bb956784f0964", "fields": {"cp": "75020", "nom_site": "MAISON DE LA VIE ASSOCIATIVE ET CITOYENNE 20", "arc_adresse": "18 RUE RAMUS", "geo_point_2d": [48.8627043264, 2.39878906422], "nombre_de_borne_wifi": 2, "idpw": "PW0187", "geo_shape": {"type": "Point", "coordinates": [2.398789064219767, 48.86270432644074]}, "etat2": "Op\u00e9rationnel"}, "geometry": {"type": "Point", "coordinates": [2.39878906422, 48.8627043264]}, "record_timestamp": "2019-10-08T07:01:10.494000+00:00"}, {"datasetid": "sites-disposant-du-service-paris-wi-fi", "recordid": "0276e952eb5ed588c6f74e26ea0d96f4aabfd66b", "fields": {"cp": "75004", "nom_site": "BIBLIOTHEQUE FORNEY", "arc_adresse": "1 RUE DU FIGUIER", "geo_point_2d": [48.853423534, 2.35917923727], "nombre_de_borne_wifi": 2, "idpw": "PW0050", "geo_shape": {"type": "Point", "coordinates": [2.359179237268959, 48.85342353398947]}, "etat2": "Op\u00e9rationnel"}, "geometry": {"type": "Point", "coordinates": [2.35917923727, 48.853423534]}, "record_timestamp": "2019-10-08T07:01:10.494000+00:00"}, {"datasetid": "sites-disposant-du-service-paris-wi-fi", "recordid": "d0434100eedeccca197f73adfe44c5fbde5cd410", "fields": {"cp": "75020", "nom_site": "GYMNASE PAUL MEURICE", "arc_adresse": "1 RUE PAUL MEURICE", "geo_point_2d": [48.8740265007, 2.41213767973], "nombre_de_borne_wifi": 1, "idpw": "PW0085", "geo_shape": {"type": "Point", "coordinates": [2.412137679731794, 48.87402650073302]}, "etat2": "Op\u00e9rationnel"}, "geometry": {"type": "Point", "coordinates": [2.41213767973, 48.8740265007]}, "record_timestamp": "2019-10-08T07:01:10.494000+00:00"}, {"datasetid": "sites-disposant-du-service-paris-wi-fi", "recordid": "5d35f598b51afd3e9773ea0a33c83001e3274a8f", "fields": {"cp": "75011", "nom_site": "CENTRE SPORTIF GEORGES RIGAL", "arc_adresse": "115 BOULEVARD DE CHARONNE", "geo_point_2d": [48.8566034181, 2.39386877243], "nombre_de_borne_wifi": 1, "idpw": "PW0080", "geo_shape": {"type": "Point", "coordinates": [2.393868772427969, 48.85660341812767]}, "etat2": "Op\u00e9rationnel"}, "geometry": {"type": "Point", "coordinates": [2.39386877243, 48.8566034181]}, "record_timestamp": "2019-10-08T07:01:10.494000+00:00"}, {"datasetid": "sites-disposant-du-service-paris-wi-fi", "recordid": "c07c4b2dcef447222283d272eca01260756bb2b5", "fields": {"cp": "75011", "nom_site": "MEDIATHEQUE VIOLETTE LEDUC", "arc_adresse": "18 RUE FAIDHERBE", "geo_point_2d": [48.8515955528, 2.38396007097], "nombre_de_borne_wifi": 4, "idpw": "PW0049", "geo_shape": {"type": "Point", "coordinates": [2.383960070968056, 48.85159555284071]}, "etat2": "Op\u00e9rationnel"}, "geometry": {"type": "Point", "coordinates": [2.38396007097, 48.8515955528]}, "record_timestamp": "2019-10-08T07:01:10.494000+00:00"}, {"datasetid": "sites-disposant-du-service-paris-wi-fi", "recordid": "07083fbabe92da75689eb2414e2baec1b9d8e6cc", "fields": {"cp": "75005", "nom_site": "MAISON DE LA VIE ASSOCIATIVE ET CITOYENNE QUARTIER LATIN 5", "arc_adresse": "4 RUE DES ARENES", "geo_point_2d": [48.8451121922, 2.3542064419], "nombre_de_borne_wifi": 2, "idpw": "PW0026", "geo_shape": {"type": "Point", "coordinates": [2.3542064419028152, 48.84511219216891]}, "etat2": "Op\u00e9rationnel"}, "geometry": {"type": "Point", "coordinates": [2.3542064419, 48.8451121922]}, "record_timestamp": "2019-10-08T07:01:10.494000+00:00"}, {"datasetid": "sites-disposant-du-service-paris-wi-fi", "recordid": "72d7ff5c9198a14a584dbff3d32149d8224c40ef", "fields": {"cp": "75010", "nom_site": "JARDIN DES BERGES DU CANAL SAINT MARTIN", "arc_adresse": "150 QUAI DE VALMY", "geo_point_2d": [48.8801112154, 2.36720666871], "nombre_de_borne_wifi": 1, "idpw": "PW0194", "geo_shape": {"type": "Point", "coordinates": [2.3672066687098132, 48.8801112154069]}, "etat2": "Op\u00e9rationnel"}, "geometry": {"type": "Point", "coordinates": [2.36720666871, 48.8801112154]}, "record_timestamp": "2019-10-08T07:01:10.494000+00:00"}, {"datasetid": "sites-disposant-du-service-paris-wi-fi", "recordid": "eae224a3288d036c73e4c385f04cc4db5bca4db0", "fields": {"cp": "75020", "nom_site": "BIBLIOTHEQUE OSCAR WILDE", "arc_adresse": "12 RUE DU TELEGRAPHE", "geo_point_2d": [48.8720261058, 2.39981629322], "nombre_de_borne_wifi": 1, "idpw": "PW0061", "geo_shape": {"type": "Point", "coordinates": [2.399816293218798, 48.87202610578211]}, "etat2": "Op\u00e9rationnel"}, "geometry": {"type": "Point", "coordinates": [2.39981629322, 48.8720261058]}, "record_timestamp": "2019-10-08T07:01:10.494000+00:00"}, {"datasetid": "sites-disposant-du-service-paris-wi-fi", "recordid": "1b12415bcdcd6020552225f3e5759b1dcc77980c", "fields": {"cp": "75012", "nom_site": "MAIRIE DU 12 EME", "arc_adresse": "130 AVENUE DAUMESNIL", "geo_point_2d": [48.8411040785, 2.3883374877], "nombre_de_borne_wifi": 1, "idpw": "PW0012", "geo_shape": {"type": "Point", "coordinates": [2.388337487704946, 48.841104078480036]}, "etat2": "Op\u00e9rationnel"}, "geometry": {"type": "Point", "coordinates": [2.3883374877, 48.8411040785]}, "record_timestamp": "2019-10-08T07:01:10.494000+00:00"}, {"datasetid": "sites-disposant-du-service-paris-wi-fi", "recordid": "8badc39567ff0a04bf8e51585c6b86f5a84769fe", "fields": {"cp": "75004", "nom_site": "JARDIN FREDERICO GARCIA LORCA - SQUARE HDV", "arc_adresse": "QUAI DE L'HOTEL DE VILLE", "geo_point_2d": [48.8547105055, 2.35324093401], "nombre_de_borne_wifi": 1, "idpw": "PW0191", "geo_shape": {"type": "Point", "coordinates": [2.353240934008802, 48.85471050547105]}, "etat2": "Op\u00e9rationnel"}, "geometry": {"type": "Point", "coordinates": [2.35324093401, 48.8547105055]}, "record_timestamp": "2019-10-08T07:01:10.494000+00:00"}, {"datasetid": "sites-disposant-du-service-paris-wi-fi", "recordid": "55f12b6745e3284cd82448b3bb717ddb55ad7d37", "fields": {"cp": "75014", "nom_site": "SQUARE SERMENT DE KOUFRA", "arc_adresse": "30 AVENUE ERNEST REYER", "geo_point_2d": [48.8215934539, 2.32303498218], "nombre_de_borne_wifi": 1, "idpw": "PW0188", "geo_shape": {"type": "Point", "coordinates": [2.323034982175869, 48.821593453909365]}, "etat2": "Op\u00e9rationnel"}, "geometry": {"type": "Point", "coordinates": [2.32303498218, 48.8215934539]}, "record_timestamp": "2019-10-08T07:01:10.494000+00:00"}, {"datasetid": "sites-disposant-du-service-paris-wi-fi", "recordid": "e6a11955a35194388707f1d56dc73253e48ba38b", "fields": {"cp": "75001", "nom_site": "MAISON DE LA VIE ASSOCIATIVE ET CITOYENNE  1", "arc_adresse": "5B RUE DU LOUVRE", "geo_point_2d": [48.8618833615, 2.341156755], "nombre_de_borne_wifi": 2, "idpw": "PW0148", "geo_shape": {"type": "Point", "coordinates": [2.34115675500317, 48.861883361502315]}, "etat2": "Op\u00e9rationnel"}, "geometry": {"type": "Point", "coordinates": [2.341156755, 48.8618833615]}, "record_timestamp": "2019-10-08T07:01:10.494000+00:00"}, {"datasetid": "sites-disposant-du-service-paris-wi-fi", "recordid": "a7b673dca3c593fa624aeec5db16490ed501ac0c", "fields": {"cp": "75015", "nom_site": "CENTRE SPORTIF PLAINE", "arc_adresse": "13 RUE DU GENERAL GUILLAUMAT", "geo_point_2d": [48.8280331741, 2.29332761077], "nombre_de_borne_wifi": 1, "idpw": "PW0088", "geo_shape": {"type": "Point", "coordinates": [2.293327610769408, 48.828033174092695]}, "etat2": "Op\u00e9rationnel"}, "geometry": {"type": "Point", "coordinates": [2.29332761077, 48.8280331741]}, "record_timestamp": "2019-10-08T07:01:10.494000+00:00"}, {"datasetid": "sites-disposant-du-service-paris-wi-fi", "recordid": "4db99b6b71c80d199f9e0138c70994719acf9072", "fields": {"cp": "75012", "nom_site": "CENTRE SPORTIF LEO LAGRANGE", "arc_adresse": "68 BOULEVARD PONIATOWSKI", "geo_point_2d": [48.8321648675, 2.39933433594], "nombre_de_borne_wifi": 1, "idpw": "PW0084", "geo_shape": {"type": "Point", "coordinates": [2.399334335935606, 48.832164867528206]}, "etat2": "Op\u00e9rationnel"}, "geometry": {"type": "Point", "coordinates": [2.39933433594, 48.8321648675]}, "record_timestamp": "2019-10-08T07:01:10.494000+00:00"}, {"datasetid": "sites-disposant-du-service-paris-wi-fi", "recordid": "92572607ae26458cb3d48c7070a0834ae07945a1", "fields": {"cp": "75014", "nom_site": "GYMNASE ALICE MILLIAT", "arc_adresse": "11 T RUE D ALESIA", "geo_point_2d": [48.8271609094, 2.33626383901], "nombre_de_borne_wifi": 1, "idpw": "PW0094", "geo_shape": {"type": "Point", "coordinates": [2.336263839006832, 48.82716090943828]}, "etat2": "Op\u00e9rationnel"}, "geometry": {"type": "Point", "coordinates": [2.33626383901, 48.8271609094]}, "record_timestamp": "2019-10-08T07:01:10.494000+00:00"}, {"datasetid": "sites-disposant-du-service-paris-wi-fi", "recordid": "774176f9dd51e77c3681eb424b6f0e5eb9ddc6e7", "fields": {"cp": "75012", "nom_site": "GYMNASE REUILLY", "arc_adresse": "11 RUE ANTOINE JULIEN HENARD", "geo_point_2d": [48.8417054788, 2.38917144192], "nombre_de_borne_wifi": 1, "idpw": "PW0099", "geo_shape": {"type": "Point", "coordinates": [2.389171441921968, 48.84170547884535]}, "etat2": "Op\u00e9rationnel"}, "geometry": {"type": "Point", "coordinates": [2.38917144192, 48.8417054788]}, "record_timestamp": "2019-10-08T07:01:10.494000+00:00"}, {"datasetid": "sites-disposant-du-service-paris-wi-fi", "recordid": "2ccea987be3091d659daf4dc10765115d4cf8862", "fields": {"cp": "75017", "nom_site": "PISCINE BERNARD LAFAY", "arc_adresse": "79 RUE DE LA JONQUIERE", "geo_point_2d": [48.8946479903, 2.31881724233], "nombre_de_borne_wifi": 1, "idpw": "PW0100", "geo_shape": {"type": "Point", "coordinates": [2.318817242332568, 48.89464799028461]}, "etat2": "Op\u00e9rationnel"}, "geometry": {"type": "Point", "coordinates": [2.31881724233, 48.8946479903]}, "record_timestamp": "2019-10-08T07:01:10.494000+00:00"}, {"datasetid": "sites-disposant-du-service-paris-wi-fi", "recordid": "c6f26b042e4c3cdc13aaa49b791a7b83d365764c", "fields": {"cp": "75012", "nom_site": "PROMENADE PLANTEE VERS BASTILLE", "arc_adresse": "0 AVENUE DAUMESNIL - RUE DE LYON", "geo_point_2d": [48.8494425874, 2.37138229891], "nombre_de_borne_wifi": 1, "geo_shape": {"type": "Point", "coordinates": [2.371382298907526, 48.84944258739955]}, "etat2": "En \u00e9tude"}, "geometry": {"type": "Point", "coordinates": [2.37138229891, 48.8494425874]}, "record_timestamp": "2019-10-08T07:01:10.494000+00:00"}, {"datasetid": "sites-disposant-du-service-paris-wi-fi", "recordid": "62a716440a7e807f979a931a32856aa0faf2c121", "fields": {"cp": "75009", "nom_site": "MAISON DE LA VIE ASSOCIATIVE ET CITOYENNE  9 ANNEXE", "arc_adresse": "35 RUE VICTOR MASSE", "geo_point_2d": [48.8809409831, 2.33701088306], "nombre_de_borne_wifi": 1, "idpw": "PW0038", "geo_shape": {"type": "Point", "coordinates": [2.337010883062689, 48.88094098309761]}, "etat2": "Op\u00e9rationnel"}, "geometry": {"type": "Point", "coordinates": [2.33701088306, 48.8809409831]}, "record_timestamp": "2019-10-08T07:01:10.494000+00:00"}, {"datasetid": "sites-disposant-du-service-paris-wi-fi", "recordid": "ae3421c44c5a5450adc10599c1a2afcd0dfd5441", "fields": {"cp": "75004", "nom_site": "HOTEL DE VILLE 4EME", "arc_adresse": "4 PLACE DE L'HOTEL DE VILLE", "geo_point_2d": [48.8568665354, 2.35317182328], "nombre_de_borne_wifi": 6, "idpw": "PW0122-5", "geo_shape": {"type": "Point", "coordinates": [2.353171823279209, 48.85686653543353]}, "etat2": "Op\u00e9rationnel"}, "geometry": {"type": "Point", "coordinates": [2.35317182328, 48.8568665354]}, "record_timestamp": "2019-10-08T07:01:10.494000+00:00"}, {"datasetid": "sites-disposant-du-service-paris-wi-fi", "recordid": "c65f23f28a3972fa2cc7359cf757e3cb542b6536", "fields": {"cp": "75020", "nom_site": "PARC DE BELLEVILLE - 2", "arc_adresse": "45-47 RUE DES COURONNES", "geo_point_2d": [48.8703088766, 2.38480663231], "nombre_de_borne_wifi": 1, "idpw": "PW0204", "geo_shape": {"type": "Point", "coordinates": [2.384806632308035, 48.870308876631796]}, "etat2": "Op\u00e9rationnel"}, "geometry": {"type": "Point", "coordinates": [2.38480663231, 48.8703088766]}, "record_timestamp": "2019-10-08T07:01:10.494000+00:00"}, {"datasetid": "sites-disposant-du-service-paris-wi-fi", "recordid": "238985bdb602829cc4de1a23aa56c71c5fcb95fe", "fields": {"cp": "75018", "nom_site": "MAIRIE DU 18 EME", "arc_adresse": "1 PLACE JULES JOFFRIN", "geo_point_2d": [48.8923035579, 2.34468721296], "nombre_de_borne_wifi": 1, "idpw": "PW0023", "geo_shape": {"type": "Point", "coordinates": [2.3446872129632013, 48.892303557851214]}, "etat2": "Op\u00e9rationnel"}, "geometry": {"type": "Point", "coordinates": [2.34468721296, 48.8923035579]}, "record_timestamp": "2019-10-08T07:01:10.494000+00:00"}, {"datasetid": "sites-disposant-du-service-paris-wi-fi", "recordid": "b69f93d14bef37ec8e62fa4a2a4c9f89eaebbd39", "fields": {"cp": "75004", "nom_site": "BERGES RIVE DROITE - PONT D ARCOLE", "arc_adresse": "BERGE DE SEINE RIVE DROITE - QUAI DE GESVRES", "geo_point_2d": [48.8558319848, 2.35083466129], "nombre_de_borne_wifi": 1, "idpw": "PW0156", "geo_shape": {"type": "Point", "coordinates": [2.350834661285838, 48.85583198477931]}, "etat2": "Op\u00e9rationnel"}, "geometry": {"type": "Point", "coordinates": [2.35083466129, 48.8558319848]}, "record_timestamp": "2019-10-08T07:01:10.494000+00:00"}, {"datasetid": "sites-disposant-du-service-paris-wi-fi", "recordid": "1b940e19363ba63a27acc9e6a31797a4e354245b", "fields": {"cp": "75004", "nom_site": "SQUARE DE LA TOUR SAINT JACQUES", "arc_adresse": "88 RUE DE RIVOLI", "geo_point_2d": [48.8580407243, 2.34922010145], "nombre_de_borne_wifi": 1, "idpw": "PW0153", "geo_shape": {"type": "Point", "coordinates": [2.349220101454865, 48.85804072427662]}, "etat2": "Op\u00e9rationnel"}, "geometry": {"type": "Point", "coordinates": [2.34922010145, 48.8580407243]}, "record_timestamp": "2019-10-08T07:01:10.494000+00:00"}, {"datasetid": "sites-disposant-du-service-paris-wi-fi", "recordid": "d20cdd3f6e99995cbc018253a9fcf7743fa10587", "fields": {"cp": "75019", "nom_site": "SQUARE MARCEL MOULOUDJI", "arc_adresse": "2 RUE PIERRE REVERDY", "geo_point_2d": [48.8852754048, 2.37635419105], "nombre_de_borne_wifi": 1, "idpw": "PW0167", "geo_shape": {"type": "Point", "coordinates": [2.376354191052254, 48.88527540480054]}, "etat2": "Op\u00e9rationnel"}, "geometry": {"type": "Point", "coordinates": [2.37635419105, 48.8852754048]}, "record_timestamp": "2019-10-08T07:01:10.494000+00:00"}, {"datasetid": "sites-disposant-du-service-paris-wi-fi", "recordid": "0095035b13401fc020729b348ed6a376aa466504", "fields": {"cp": "75020", "nom_site": "CENTRE SPORTIF ALFRED NAKACHE", "arc_adresse": "4/12 RUE DENOYEZ", "geo_point_2d": [48.8714830648, 2.37867703535], "nombre_de_borne_wifi": 1, "idpw": "PW0071", "geo_shape": {"type": "Point", "coordinates": [2.378677035345246, 48.8714830647833]}, "etat2": "Op\u00e9rationnel"}, "geometry": {"type": "Point", "coordinates": [2.37867703535, 48.8714830648]}, "record_timestamp": "2019-10-08T07:01:10.494000+00:00"}, {"datasetid": "sites-disposant-du-service-paris-wi-fi", "recordid": "2b5bef0db9519c368b75fc50ec76b5ed98542819", "fields": {"cp": "75006", "nom_site": "JARDIN DES GRANDS EXPLORATEURS", "arc_adresse": "5 RUE MICHELET", "geo_point_2d": [48.8413885661, 2.33670570395], "nombre_de_borne_wifi": 1, "geo_shape": {"type": "Point", "coordinates": [2.336705703948916, 48.841388566111874]}, "etat2": "En \u00e9tude"}, "geometry": {"type": "Point", "coordinates": [2.33670570395, 48.8413885661]}, "record_timestamp": "2019-10-08T07:01:10.494000+00:00"}, {"datasetid": "sites-disposant-du-service-paris-wi-fi", "recordid": "402ff03c5334dfdc4e10358f24ec1c0ecbdc6be7", "fields": {"cp": "75004", "nom_site": "SQUARE JEAN XXIII - 1", "arc_adresse": "RUE DU CLOITRE NOTRE DAME", "geo_point_2d": [48.8524420013, 2.35067060781], "nombre_de_borne_wifi": 1, "geo_shape": {"type": "Point", "coordinates": [2.350670607814153, 48.85244200134776]}, "etat2": "En d\u00e9ploiement"}, "geometry": {"type": "Point", "coordinates": [2.35067060781, 48.8524420013]}, "record_timestamp": "2019-10-08T07:01:10.494000+00:00"}, {"datasetid": "sites-disposant-du-service-paris-wi-fi", "recordid": "cb66412e470e1ebd3d4c71946babc7c76bf0be19", "fields": {"cp": "75017", "nom_site": "MAIRIE DU 17 EME", "arc_adresse": "16/20 RUE DES BATIGNOLLES", "geo_point_2d": [48.8844937686, 2.32183436031], "nombre_de_borne_wifi": 2, "idpw": "PW0016", "geo_shape": {"type": "Point", "coordinates": [2.321834360309547, 48.88449376861104]}, "etat2": "Op\u00e9rationnel"}, "geometry": {"type": "Point", "coordinates": [2.32183436031, 48.8844937686]}, "record_timestamp": "2019-10-08T07:01:10.494000+00:00"}, {"datasetid": "sites-disposant-du-service-paris-wi-fi", "recordid": "1582ff9f621ffcd9fe79faabf78f8a38a4633411", "fields": {"cp": "75009", "nom_site": "SQUARE D'ANVERS", "arc_adresse": "PLACE D'ANVERS", "geo_point_2d": [48.88231743, 2.34452051997], "nombre_de_borne_wifi": 1, "idpw": "PW0184", "geo_shape": {"type": "Point", "coordinates": [2.344520519971863, 48.882317429953154]}, "etat2": "Op\u00e9rationnel"}, "geometry": {"type": "Point", "coordinates": [2.34452051997, 48.88231743]}, "record_timestamp": "2019-10-08T07:01:10.494000+00:00"}, {"datasetid": "sites-disposant-du-service-paris-wi-fi", "recordid": "421a32c7bbbd1f1df49a9f28a614f90d9bdab338", "fields": {"cp": "75016", "nom_site": "JARDIN MUSEE GALLIERA", "arc_adresse": "10 AVENUE PIERRE IER DE SERBIE", "geo_point_2d": [48.8658585587, 2.29699237535], "nombre_de_borne_wifi": 1, "geo_shape": {"type": "Point", "coordinates": [2.296992375354935, 48.865858558661564]}, "etat2": "Ferm\u00e9 pour travaux"}, "geometry": {"type": "Point", "coordinates": [2.29699237535, 48.8658585587]}, "record_timestamp": "2019-10-08T07:01:10.494000+00:00"}, {"datasetid": "sites-disposant-du-service-paris-wi-fi", "recordid": "c16ca9911b5719dd19226922ec2df3db8f154995", "fields": {"cp": "75016", "nom_site": "CENTRE SPORTIF HENRY DE MONTHERLAND", "arc_adresse": "30-32 BOULEVARD LANNES", "geo_point_2d": [48.8675228068, 2.27212085381], "nombre_de_borne_wifi": 1, "idpw": "PW0101", "geo_shape": {"type": "Point", "coordinates": [2.27212085380691, 48.86752280679387]}, "etat2": "Op\u00e9rationnel"}, "geometry": {"type": "Point", "coordinates": [2.27212085381, 48.8675228068]}, "record_timestamp": "2019-10-08T07:01:10.494000+00:00"}, {"datasetid": "sites-disposant-du-service-paris-wi-fi", "recordid": "56006338f49e18d8f55cbfe822e55d2866ab1100", "fields": {"cp": "75013", "nom_site": "PROMENADE PISCINE JOSEPHINE BAKER", "arc_adresse": "QUAI FRANCOIS MAURIAC", "geo_point_2d": [48.836030316, 2.37589085119], "nombre_de_borne_wifi": 1, "geo_shape": {"type": "Point", "coordinates": [2.375890851188937, 48.83603031598058]}, "etat2": "En \u00e9tude"}, "geometry": {"type": "Point", "coordinates": [2.37589085119, 48.836030316]}, "record_timestamp": "2019-10-08T07:01:10.494000+00:00"}, {"datasetid": "sites-disposant-du-service-paris-wi-fi", "recordid": "320ef2257618b3fce5395ec82f73ef59e8664d8f", "fields": {"cp": "75011", "nom_site": "SQUARE RICHARD LENOIR", "arc_adresse": "67 BOULEVARD RICHARD LENOIR", "geo_point_2d": [48.8605127941, 2.37222141682], "nombre_de_borne_wifi": 1, "idpw": "PW0206", "geo_shape": {"type": "Point", "coordinates": [2.372221416816595, 48.860512794097644]}, "etat2": "Op\u00e9rationnel"}, "geometry": {"type": "Point", "coordinates": [2.37222141682, 48.8605127941]}, "record_timestamp": "2019-10-08T07:01:10.494000+00:00"}, {"datasetid": "sites-disposant-du-service-paris-wi-fi", "recordid": "1a3def1ddcdb7fe065c368c1e3a28b3f421bd839", "fields": {"cp": "75005", "nom_site": "BIBLIOTHEQUE DES LITTERATURES POLICIERES", "arc_adresse": "48-50 RUE DU CARDINAL LEMOINE", "geo_point_2d": [48.84643023, 2.35118103072], "nombre_de_borne_wifi": 2, "idpw": "PW0138", "geo_shape": {"type": "Point", "coordinates": [2.351181030723315, 48.84643022998531]}, "etat2": "Op\u00e9rationnel"}, "geometry": {"type": "Point", "coordinates": [2.35118103072, 48.84643023]}, "record_timestamp": "2019-10-08T07:01:10.494000+00:00"}, {"datasetid": "sites-disposant-du-service-paris-wi-fi", "recordid": "39c3dbdce2368fd4f03194d88b97eec9032a5b3d", "fields": {"cp": "75019", "nom_site": "BIBLIOTHEQUE HERGE", "arc_adresse": "2 RUE DU DEPARTEMENT", "geo_point_2d": [48.8850136264, 2.36723501408], "nombre_de_borne_wifi": 1, "idpw": "PW0139", "geo_shape": {"type": "Point", "coordinates": [2.367235014082818, 48.88501362640926]}, "etat2": "Op\u00e9rationnel"}, "geometry": {"type": "Point", "coordinates": [2.36723501408, 48.8850136264]}, "record_timestamp": "2019-10-08T07:01:10.494000+00:00"}, {"datasetid": "sites-disposant-du-service-paris-wi-fi", "recordid": "893d5b1e1405a0888a4cf9ef591faa9acd65dd7c", "fields": {"cp": "75005", "nom_site": "BIBLIOTHEQUE BUFFON", "arc_adresse": "15 B RUE BUFFON", "geo_point_2d": [48.842546608, 2.3618682436], "nombre_de_borne_wifi": 3, "idpw": "PW0111", "geo_shape": {"type": "Point", "coordinates": [2.361868243596555, 48.84254660801997]}, "etat2": "Op\u00e9rationnel"}, "geometry": {"type": "Point", "coordinates": [2.3618682436, 48.842546608]}, "record_timestamp": "2019-10-08T07:01:10.494000+00:00"}, {"datasetid": "sites-disposant-du-service-paris-wi-fi", "recordid": "466e78754b70f24c810e74dc03cfab7e601a69d8", "fields": {"cp": "75008", "nom_site": "PARC MONCEAU - ALLEE CONTESSE DE SEGUR", "arc_adresse": "1-3 PLACE DE LA REPUBLIQUE DOMINICAINE", "geo_point_2d": [48.8802623407, 2.30983989697], "nombre_de_borne_wifi": 4, "idpw": "PW0151", "geo_shape": {"type": "Point", "coordinates": [2.309839896973783, 48.8802623407297]}, "etat2": "Op\u00e9rationnel"}, "geometry": {"type": "Point", "coordinates": [2.30983989697, 48.8802623407]}, "record_timestamp": "2019-10-08T07:01:10.494000+00:00"}, {"datasetid": "sites-disposant-du-service-paris-wi-fi", "recordid": "ad87853e3eb986479a350a6fa77dd4087fcf4dad", "fields": {"cp": "75013", "nom_site": "SQUARE HELOISE ET ABELARD - PARIS NATURE MAISON DES 5 SENS", "arc_adresse": "22 RUE PIERRE GOURDAULT", "geo_point_2d": [48.8309190436, 2.37010695364], "nombre_de_borne_wifi": 1, "idpw": "PW0066", "geo_shape": {"type": "Point", "coordinates": [2.370106953637174, 48.83091904359557]}, "etat2": "Op\u00e9rationnel"}, "geometry": {"type": "Point", "coordinates": [2.37010695364, 48.8309190436]}, "record_timestamp": "2019-10-08T07:01:10.494000+00:00"}, {"datasetid": "sites-disposant-du-service-paris-wi-fi", "recordid": "d453fb37cb95d259d9e8f943ae5d91dbb243fb3a", "fields": {"cp": "75001", "nom_site": "BERGES RIVE DROITE - PONT AU CHANGE", "arc_adresse": "BERGE DE SEINE RIVE DROITE - VIA FERRATA", "geo_point_2d": [48.8575127839, 2.34656304265], "nombre_de_borne_wifi": 1, "idpw": "PW0158", "geo_shape": {"type": "Point", "coordinates": [2.346563042652777, 48.85751278386863]}, "etat2": "Op\u00e9rationnel"}, "geometry": {"type": "Point", "coordinates": [2.34656304265, 48.8575127839]}, "record_timestamp": "2019-10-08T07:01:10.494000+00:00"}, {"datasetid": "sites-disposant-du-service-paris-wi-fi", "recordid": "a4d76e829b0984fc35ce839ad00660ac3a4aba8c", "fields": {"cp": "75008", "nom_site": "MUSEE CERNUSCHI", "arc_adresse": "7 AVENUE VELASQUEZ", "geo_point_2d": [48.8794445126, 2.31252309998], "nombre_de_borne_wifi": 17, "idpw": "PW0144", "geo_shape": {"type": "Point", "coordinates": [2.312523099981508, 48.879444512607904]}, "etat2": "Op\u00e9rationnel"}, "geometry": {"type": "Point", "coordinates": [2.31252309998, 48.8794445126]}, "record_timestamp": "2019-10-08T07:01:10.494000+00:00"}, {"datasetid": "sites-disposant-du-service-paris-wi-fi", "recordid": "80545f8fae4ce6dcec4058072be9a6e19b34789f", "fields": {"cp": "75012", "nom_site": "CENTRE PARIS ANIM'MAURICE RAVEL", "arc_adresse": "6 RUE MAURICE RAVEL", "geo_point_2d": [48.8418039259, 2.41166835606], "nombre_de_borne_wifi": 1, "geo_shape": {"type": "Point", "coordinates": [2.411668356058277, 48.84180392592807]}, "etat2": "En d\u00e9ploiement"}, "geometry": {"type": "Point", "coordinates": [2.41166835606, 48.8418039259]}, "record_timestamp": "2019-10-08T07:01:10.494000+00:00"}, {"datasetid": "sites-disposant-du-service-paris-wi-fi", "recordid": "8f95db38e945761f228c00067d311e1ee95a873d", "fields": {"cp": "75020", "nom_site": "MAIRIE DU 20 EME", "arc_adresse": "6 PLACE GAMBETTA", "geo_point_2d": [48.8650911391, 2.39899770026], "nombre_de_borne_wifi": 1, "idpw": "PW0018", "geo_shape": {"type": "Point", "coordinates": [2.3989977002640392, 48.865091139066706]}, "etat2": "Op\u00e9rationnel"},